[
{
  "id": 6316125,
  "address": "V. Corporate Center, Soliman Street, Salcedo Village, Makati City",
  "city": "Makati City",
  "city_id": 63,
  "country_id": 162,
  "latitude": 14.56031257,
  "locality": "Salcedo Village",
  "locality_verbose": "Salcedo Village, Makati City",
  "longitude": 121.0246379,
  "zipcode": ""
},
{
  "id": 18409457,
  "address": "Level 3, Greenbelt 3, Ayala Center, Greenbelt, Makati City",
  "city": "Makati City",
  "city_id": 63,
  "country_id": 162,
  "latitude": 14.55213741,
  "locality": "Greenbelt 3, San Lorenzo, Makati City",
  "locality_verbose": "Greenbelt 3, San Lorenzo, Makati City, Makati City",
  "longitude": 121.0213247,
  "zipcode": ""
},
{
  "id": 6307689,
  "address": "5012 P. Burgos Street, Poblacion, Makati City 1210 1210",
  "city": "Makati City",
  "city_id": 63,
  "country_id": 162,
  "latitude": 14.56314357,
  "locality": "Poblacion",
  "locality_verbose": "Poblacion, Makati City",
  "longitude": 121.0298005,
  "zipcode": 1210
},
{
  "id": 18581637,
  "address": "CKB Centre, Tomas Morato Avenue Corner Scout Rallos Street, Laging Handa, Quezon City",
  "city": "Quezon City",
  "city_id": 63,
  "country_id": 162,
  "latitude": 14.63371254,
  "locality": "Tomas Morato",
  "locality_verbose": "Tomas Morato, Quezon City",
  "longitude": 121.0350258,
  "zipcode": ""
},
{
  "id": 6315438,
  "address": "Sixth Floor, SM Aura Premier, C5 Road Corner 26th Street, Bonifacio Global City, Taguig City",
  "city": "Taguig City",
  "city_id": 63,
  "country_id": 162,
  "latitude": 14.54623626,
  "locality": "SM Aura Premier, Bonifacio Global City, Taguig City",
  "locality_verbose": "SM Aura Premier, Bonifacio Global City, Taguig City, Taguig City",
  "longitude": 121.0543645,
  "zipcode": ""
},
{
  "id": 6300010,
  "address": "Plaza Level, Sofitel Philippine Plaza Manila, CCP Complex, Pasay City",
  "city": "Pasay City",
  "city_id": 63,
  "country_id": 162,
  "latitude": 14.55325571,
  "locality": "Sofitel Philippine Plaza Manila, CCP Complex, Pasay City",
  "locality_verbose": "Sofitel Philippine Plaza Manila, CCP Complex, Pasay City, Pasay City",
  "longitude": 120.9815104,
  "zipcode": ""
},
{
  "id": 18655016,
  "address": "Ground Floor, Entertainment Mall, SM Mall of Asia, Mall of Asia Complex (MOA), Pasay City",
  "city": "Pasay City",
  "city_id": 63,
  "country_id": 162,
  "latitude": 14.53617368,
  "locality": "Entertainment Mall, SM Mall of Asia, Mall of Asia Complex (MOA), Pasay City",
  "locality_verbose": "Entertainment Mall, SM Mall of Asia, Mall of Asia Complex (MOA), Pasay City, Pasay City",
  "longitude": 120.9803946,
  "zipcode": ""
},
{
  "id": 6304287,
  "address": "Little Tokyo, 2277 Chino Roces Avenue, Legaspi Village, Makati City",
  "city": "Makati City",
  "city_id": 63,
  "country_id": 162,
  "latitude": 14.553708,
  "locality": "Little Tokyo, Legaspi Village, Makati City",
  "locality_verbose": "Little Tokyo, Legaspi Village, Makati City, Makati City",
  "longitude": 121.014101,
  "zipcode": ""
},
{
  "id": 18451647,
  "address": "Ground Floor, 140 Maginhawa Street, Sikatuna Village, Quezon City",
  "city": "Quezon City",
  "city_id": 63,
  "country_id": 162,
  "latitude": 14.64166961,
  "locality": "Sikatuna Village",
  "locality_verbose": "Sikatuna Village, Quezon City",
  "longitude": 121.0611029,
  "zipcode": ""
},
{
  "id": 6309903,
  "address": "75 East Capitol Drive, Kapitolyo, Pasig City",
  "city": "Pasig City",
  "city_id": 63,
  "country_id": 162,
  "latitude": 14.56761486,
  "locality": "Kapitolyo",
  "locality_verbose": "Kapitolyo, Pasig City",
  "longitude": 121.0579221,
  "zipcode": ""
},
{
  "id": 6304833,
  "address": "Level 1, Greenbelt 2, Ayala Center, Greenbelt, Makati City",
  "city": "Makati City",
  "city_id": 63,
  "country_id": 162,
  "latitude": 14.55192,
  "locality": "Greenbelt 2, San Lorenzo, Makati City",
  "locality_verbose": "Greenbelt 2, San Lorenzo, Makati City, Makati City",
  "longitude": 121.020485,
  "zipcode": ""
},
{
  "id": 6318506,
  "address": "Third Floor, Mega Fashion Hall, SM Megamall, Ortigas, Mandaluyong City",
  "city": "Mandaluyong City",
  "city_id": 63,
  "country_id": 162,
  "latitude": 14.58387256,
  "locality": "SM Megamall, Ortigas, Mandaluyong City",
  "locality_verbose": "SM Megamall, Ortigas, Mandaluyong City, Mandaluyong City",
  "longitude": 121.056168,
  "zipcode": ""
},
{
  "id": 18165419,
  "address": "100 Don Carlos Palanca Street, Legaspi Village, Makati City",
  "city": "Makati City",
  "city_id": 63,
  "country_id": 162,
  "latitude": 14.55575059,
  "locality": "Legaspi Village",
  "locality_verbose": "Legaspi Village, Makati City",
  "longitude": 121.019528,
  "zipcode": ""
},
{
  "id": 6314302,
  "address": "Third Floor, Mega Atrium, SM Megamall, Ortigas, Mandaluyong City",
  "city": "Mandaluyong City",
  "city_id": 63,
  "country_id": 162,
  "latitude": 14.58438588,
  "locality": "SM Megamall, Ortigas, Mandaluyong City",
  "locality_verbose": "SM Megamall, Ortigas, Mandaluyong City, Mandaluyong City",
  "longitude": 121.0569834,
  "zipcode": ""
},
{
  "id": 6309831,
  "address": "Molito Commercial Complex, Alabang, Muntinlupa City",
  "city": "Muntinlupa City",
  "city_id": 63,
  "country_id": 162,
  "latitude": 14.42492884,
  "locality": "Molito Commercial Complex, Alabang, Mutinlupa City",
  "locality_verbose": "Molito Commercial Complex, Alabang, Mutinlupa City, Muntinlupa City",
  "longitude": 121.0268105,
  "zipcode": ""
},
{
  "id": 18189371,
  "address": "Ground Floor, Mega Fashion Hall, SM Megamall, Ortigas, Mandaluyong City",
  "city": "Mandaluyong City",
  "city_id": 63,
  "country_id": 162,
  "latitude": 14.58372265,
  "locality": "SM Megamall, Ortigas, Mandaluyong City",
  "locality_verbose": "SM Megamall, Ortigas, Mandaluyong City, Mandaluyong City",
  "longitude": 121.0561609,
  "zipcode": ""
},
{
  "id": 18506282,
  "address": "Ground Floor, Ayala Malls The 30th, Meralco Avenue, Ugong, Pasig City",
  "city": "Pasig City",
  "city_id": 63,
  "country_id": 162,
  "latitude": 14.580743,
  "locality": "Ayala Malls The 30th, Ugong, Pasig City",
  "locality_verbose": "Ayala Malls The 30th, Ugong, Pasig City, Pasig City",
  "longitude": 121.06406,
  "zipcode": ""
},
{
  "id": 6314243,
  "address": "78 Scout Gandia Street, Laging Handa, Tomas Morato, Quezon City",
  "city": "Quezon City",
  "city_id": 63,
  "country_id": 162,
  "latitude": 14.63177359,
  "locality": "Tomas Morato",
  "locality_verbose": "Tomas Morato, Quezon City",
  "longitude": 121.0332505,
  "zipcode": ""
},
{
  "id": 6314111,
  "address": "Third Floor, Mega Fashion Hall, SM Megamall, Ortigas, Mandaluyong City",
  "city": "Mandaluyong City",
  "city_id": 63,
  "country_id": 162,
  "latitude": 14.58324438,
  "locality": "SM Megamall, Ortigas, Mandaluyong City",
  "locality_verbose": "SM Megamall, Ortigas, Mandaluyong City, Mandaluyong City",
  "longitude": 121.0559561,
  "zipcode": ""
},
{
  "id": 6318213,
  "address": "Aguinaldo Highway, Tagaytay City",
  "city": "Tagaytay City",
  "city_id": 63,
  "country_id": 162,
  "latitude": 14.10243781,
  "locality": "Tagaytay City",
  "locality_verbose": "Tagaytay City, Tagaytay City",
  "longitude": 120.9512068,
  "zipcode": ""
},
{
  "id": 18695427,
  "address": "Icon Plaza, 26th Street, Bonifacio Global City, Taguig City",
  "city": "Taguig City",
  "city_id": 63,
  "country_id": 162,
  "latitude": 14.548209,
  "locality": "Bonifacio Global City",
  "locality_verbose": "Bonifacio Global City, Taguig City",
  "longitude": 121.047874,
  "zipcode": ""
},
{
  "id": 6314605,
  "address": "17 J. Abad Santos Drive, Little Baguio, San Juan City",
  "city": "San Juan City",
  "city_id": 63,
  "country_id": 162,
  "latitude": 14.59886922,
  "locality": "Little Baguio",
  "locality_verbose": "Little Baguio, San Juan City",
  "longitude": 121.038174,
  "zipcode": ""
},
{
  "id": 6301290,
  "address": "Building B, SM by the Bay, SM Mall of Asia, Mall of Asia Complex (MOA), Pasay City",
  "city": "Pasay City",
  "city_id": 63,
  "country_id": 162,
  "latitude": 14.54060885,
  "locality": "SM by the Bay, SM Mall of Asia, Mall of Asia Complex (MOA), Pasay City",
  "locality_verbose": "SM by the Bay, SM Mall of Asia, Mall of Asia Complex (MOA), Pasay City, Pasay City",
  "longitude": 120.9793924,
  "zipcode": ""
},
{
  "id": 6309635,
  "address": "Ground Floor, City Golf Plaza, Julia Vargas Avenue, Ugong, Pasig City",
  "city": "Pasig City",
  "city_id": 63,
  "country_id": 162,
  "latitude": 14.58469121,
  "locality": "City Golf Plaza, Ugong, Pasig City",
  "locality_verbose": "City Golf Plaza, Ugong, Pasig City, Pasig City",
  "longitude": 121.0674218,
  "zipcode": ""
},
{
  "id": 6311506,
  "address": "64 Calderon Street, Calumpang, Marikina City",
  "city": "Marikina City",
  "city_id": 63,
  "country_id": 162,
  "latitude": 14.62167405,
  "locality": "Calumpang",
  "locality_verbose": "Calumpang, Marikina City",
  "longitude": 121.0954493,
  "zipcode": ""
},
{
  "id": 18382308,
  "address": "Bonifacio High Street Central, 7th Avenue, Bonifacio Global City, Taguig City",
  "city": "Taguig City",
  "city_id": 63,
  "country_id": 162,
  "latitude": 14.5513167,
  "locality": "Bonifacio High Street Central, Bonifacio Global City, Taguig City",
  "locality_verbose": "Bonifacio High Street Central, Bonifacio Global City, Taguig City, Taguig City",
  "longitude": 121.0489159,
  "zipcode": ""
},
{
  "id": 6318433,
  "address": "Second Floor, UP Town Center, Katipunan Avenue, Diliman, Quezon City",
  "city": "Quezon City",
  "city_id": 63,
  "country_id": 162,
  "latitude": 14.64970747,
  "locality": "UP Town Center, Diliman, Quezon City",
  "locality_verbose": "UP Town Center, Diliman, Quezon City, Quezon City",
  "longitude": 121.0755737,
  "zipcode": ""
},
{
  "id": 6314240,
  "address": "105-R Mother Ignacia Corner Sct. Madrinan Street, South Triangle, Tomas Morato, Quezon City 1100",
  "city": "Quezon City",
  "city_id": 63,
  "country_id": 162,
  "latitude": 14.63742073,
  "locality": "Tomas Morato",
  "locality_verbose": "Tomas Morato, Quezon City",
  "longitude": 121.0310125,
  "zipcode": 1100
},
{
  "id": 18358376,
  "address": "Upper Ground Floor, Main Building, SM City North EDSA, Bago Bantay, Quezon City",
  "city": "Quezon City",
  "city_id": 63,
  "country_id": 162,
  "latitude": 14.65625297,
  "locality": "SM City North EDSA, Bago Bantay, Quezon City",
  "locality_verbose": "SM City North EDSA, Bago Bantay, Quezon City, Quezon City",
  "longitude": 121.0312395,
  "zipcode": ""
},
{
  "id": 6316359,
  "address": "32nd Floor, City Garden Grand Hotel, Makati Corner Kalayaan Avenue, Poblacion, Makati City",
  "city": "Makati City",
  "city_id": 63,
  "country_id": 162,
  "latitude": 14.56470897,
  "locality": "City Garden Grand Hotel, Poblacion, Makati City",
  "locality_verbose": "City Garden Grand Hotel, Poblacion, Makati City, Makati City",
  "longitude": 121.0292574,
  "zipcode": ""
},
{
  "id": 6311148,
  "address": "78 N. Roxas Street, Santo Domingo, Quezon City",
  "city": "Quezon City",
  "city_id": 63,
  "country_id": 162,
  "latitude": 14.62739768,
  "locality": "Banawe",
  "locality_verbose": "Banawe, Quezon City",
  "longitude": 121.0052566,
  "zipcode": ""
},
{
  "id": 18476113,
  "address": "Second Floor, BLC Building, Banawe Corner Don Manuel Agregado Street, Banawe, Quezon City",
  "city": "Quezon City",
  "city_id": 63,
  "country_id": 162,
  "latitude": 14.63106899,
  "locality": "Banawe",
  "locality_verbose": "Banawe, Quezon City",
  "longitude": 121.0024648,
  "zipcode": ""
},
{
  "id": 6310470,
  "address": "387 P. Guevarra Corner Argonne Street, Addition Hills, San Juan City",
  "city": "San Juan City",
  "city_id": 63,
  "country_id": 162,
  "latitude": 14.59342291,
  "locality": "Addition Hills",
  "locality_verbose": "Addition Hills, San Juan City",
  "longitude": 121.0337427,
  "zipcode": ""
},
{
  "id": 6316962,
  "address": "Second Floor, 238 Center, Banawe Corner Panalturan Street, Banawe, Quezon City",
  "city": "Quezon City",
  "city_id": 63,
  "country_id": 162,
  "latitude": 14.643299,
  "locality": "238 Center, Banawe, Quezon City",
  "locality_verbose": "238 Center, Banawe, Quezon City, Quezon City",
  "longitude": 121.000505,
  "zipcode": ""
},
{
  "id": 6305259,
  "address": "Eastwood Citywalk 1, Libis, Quezon City",
  "city": "Quezon City",
  "city_id": 63,
  "country_id": 162,
  "latitude": 14.60857529,
  "locality": "Eastwood Citywalk 1, Libis, Quezon City",
  "locality_verbose": "Eastwood Citywalk 1, Libis, Quezon City, Quezon City",
  "longitude": 121.0805405,
  "zipcode": ""
},
{
  "id": 6310386,
  "address": "5782 Felipe Street, Poblacion, Makati City",
  "city": "Makati City",
  "city_id": 63,
  "country_id": 162,
  "latitude": 14.56274183,
  "locality": "Poblacion",
  "locality_verbose": "Poblacion, Makati City",
  "longitude": 121.0307081,
  "zipcode": ""
},
{
  "id": 6308700,
  "address": "Upper Ground Floor, Main Building, SM City North EDSA, Bago Bantay, Quezon City",
  "city": "Quezon City",
  "city_id": 63,
  "country_id": 162,
  "latitude": 14.65598374,
  "locality": "SM City North EDSA, Bago Bantay, Quezon City",
  "locality_verbose": "SM City North EDSA, Bago Bantay, Quezon City, Quezon City",
  "longitude": 121.0324123,
  "zipcode": ""
},
{
  "id": 18506264,
  "address": "Second Floor, 170 Tomas Morato Corner Don Roces Avenue, Tomas Morato, Quezon City",
  "city": "Quezon City",
  "city_id": 63,
  "country_id": 162,
  "latitude": 14.62856393,
  "locality": "Tomas Morato",
  "locality_verbose": "Tomas Morato, Quezon City",
  "longitude": 121.0341749,
  "zipcode": ""
},
{
  "id": 6300011,
  "address": "The Manila Hotel, One Rizal Park, Ermita, Manila 0913",
  "city": "Manila",
  "city_id": 63,
  "country_id": 162,
  "latitude": 14.58286377,
  "locality": "Manila Hotel, Ermita, Manila",
  "locality_verbose": "Manila Hotel, Ermita, Manila, Manila",
  "longitude": 120.9748695,
  "zipcode": 913
},
{
  "id": 6300781,
  "address": "Building K, SM by the Bay, SM Mall of Asia, Mall of Asia Complex (MOA), Pasay City",
  "city": "Pasay City",
  "city_id": 63,
  "country_id": 162,
  "latitude": 14.53176309,
  "locality": "SM by the Bay, SM Mall of Asia, Mall of Asia Complex (MOA), Pasay City",
  "locality_verbose": "SM by the Bay, SM Mall of Asia, Mall of Asia Complex (MOA), Pasay City, Pasay City",
  "longitude": 120.9794437,
  "zipcode": ""
},
{
  "id": 18549676,
  "address": "1720 A. Mabini Corner Alonzo Street, Malate, Manila",
  "city": "Manila",
  "city_id": 63,
  "country_id": 162,
  "latitude": 14.57139133,
  "locality": "Malate",
  "locality_verbose": "Malate, Manila",
  "longitude": 120.9842687,
  "zipcode": ""
},
{
  "id": 6314987,
  "address": "Brixton Technology Center, 10 Brixton Street, Kapitolyo, Pasig City",
  "city": "Pasig City",
  "city_id": 63,
  "country_id": 162,
  "latitude": 14.57172199,
  "locality": "Kapitolyo",
  "locality_verbose": "Kapitolyo, Pasig City",
  "longitude": 121.0566089,
  "zipcode": ""
},
{
  "id": 6301688,
  "address": "Second Floor, Lucky Chinatown Mall, Binondo, Manila",
  "city": "Manila",
  "city_id": 63,
  "country_id": 162,
  "latitude": 14.60343453,
  "locality": "Lucky Chinatown Mall, Binondo, Manila",
  "locality_verbose": "Lucky Chinatown Mall, Binondo, Manila, Manila",
  "longitude": 120.9737484,
  "zipcode": ""
},
{
  "id": 6315846,
  "address": "Food Hall, Fifth Floor, Mega Fashion Hall, SM Megamall, Ortigas, Mandaluyong City",
  "city": "Mandaluyong City",
  "city_id": 63,
  "country_id": 162,
  "latitude": 14.58324308,
  "locality": "SM Megamall, Ortigas, Mandaluyong City",
  "locality_verbose": "SM Megamall, Ortigas, Mandaluyong City, Mandaluyong City",
  "longitude": 121.0559544,
  "zipcode": ""
},
{
  "id": 6314542,
  "address": "Nielson Tower, Ayala Triangle Gardens, Salcedo Village, Makati City",
  "city": "Makati City",
  "city_id": 63,
  "country_id": 162,
  "latitude": 14.555908,
  "locality": "Ayala Triangle Gardens, Salcedo Village, Makati City",
  "locality_verbose": "Ayala Triangle Gardens, Salcedo Village, Makati City, Makati City",
  "longitude": 121.024509,
  "zipcode": ""
},
{
  "id": 6313582,
  "address": "1st Street, Kapitolyo, Pasig City",
  "city": "Pasig City",
  "city_id": 63,
  "country_id": 162,
  "latitude": 14.57392171,
  "locality": "Kapitolyo",
  "locality_verbose": "Kapitolyo, Pasig City",
  "longitude": 121.060598,
  "zipcode": ""
},
{
  "id": 18280299,
  "address": "113 Mother Ignacia Avenue, South Triangle, Tomas Morato, Quezon City 1103",
  "city": "Quezon City",
  "city_id": 63,
  "country_id": 162,
  "latitude": 14.63814607,
  "locality": "Tomas Morato",
  "locality_verbose": "Tomas Morato, Quezon City",
  "longitude": 121.0321428,
  "zipcode": 1103
},
{
  "id": 18558936,
  "address": "B7, Bonifacio High Street, Lane P, Bonifacio Global City, Taguig City",
  "city": "Taguig City",
  "city_id": 63,
  "country_id": 162,
  "latitude": 14.55011954,
  "locality": "Bonifacio High Street, Bonifacio Global City, Taguig City",
  "locality_verbose": "Bonifacio High Street, Bonifacio Global City, Taguig City, Taguig City",
  "longitude": 121.0527901,
  "zipcode": ""
},
{
  "id": 6301730,
  "address": "C2, Bonifacio High Street Central, 7th Avenue, Bonifacio Global City, Taguig City",
  "city": "Taguig City",
  "city_id": 63,
  "country_id": 162,
  "latitude": 14.550889,
  "locality": "Bonifacio High Street Central, Bonifacio Global City, Taguig City",
  "locality_verbose": "Bonifacio High Street Central, Bonifacio Global City, Taguig City, Taguig City",
  "longitude": 121.048952,
  "zipcode": ""
},
{
  "id": 6312860,
  "address": "Aguinaldo Highway, Bagong Tubig, Tagaytay City, Tagaytay City",
  "city": "Tagaytay City",
  "city_id": 63,
  "country_id": 162,
  "latitude": 14.08839127,
  "locality": "Tagaytay City",
  "locality_verbose": "Tagaytay City, Tagaytay City",
  "longitude": 120.8982392,
  "zipcode": ""
},
{
  "id": 18250521,
  "address": "Ground Floor, Net Park, 4th Avenue, Bonifacio Global City, Taguig City",
  "city": "Taguig City",
  "city_id": 63,
  "country_id": 162,
  "latitude": 14.54989594,
  "locality": "Net Park, Bonifacio Global City, Taguig City",
  "locality_verbose": "Net Park, Bonifacio Global City, Taguig City, Taguig City",
  "longitude": 121.0464761,
  "zipcode": ""
},
{
  "id": 6304550,
  "address": "Level 1, Greenbelt 5, Ayala Center, Greenbelt, Makati City",
  "city": "Makati City",
  "city_id": 63,
  "country_id": 162,
  "latitude": 14.552605,
  "locality": "Greenbelt 5, San Lorenzo, Makati City",
  "locality_verbose": "Greenbelt 5, San Lorenzo, Makati City, Makati City",
  "longitude": 121.021307,
  "zipcode": ""
},
{
  "id": 6312758,
  "address": "Pioneer Center Supermart, 8006 Pioneer Street, Kapitolyo, Pasig City",
  "city": "Pasig City",
  "city_id": 63,
  "country_id": 162,
  "latitude": 14.57365271,
  "locality": "Pioneer Center Supermart, Kapitolyo, Pasig City",
  "locality_verbose": "Pioneer Center Supermart, Kapitolyo, Pasig City, Pasig City",
  "longitude": 121.0589622,
  "zipcode": ""
},
{
  "id": 6310022,
  "address": "11 Isabelo Mendoza Street, San Roque, Marikina City",
  "city": "Marikina City",
  "city_id": 63,
  "country_id": 162,
  "latitude": 14.62906611,
  "locality": "San Roque",
  "locality_verbose": "San Roque, Marikina City",
  "longitude": 121.095981,
  "zipcode": ""
},
{
  "id": 18364418,
  "address": "Level 2, S Maison, Conrad Manila, Seaside Boulevard Corner Coral Way, Mall of Asia Complex (MOA), Pasay City",
  "city": "Pasay City",
  "city_id": 63,
  "country_id": 162,
  "latitude": 14.53165793,
  "locality": "S Maison, Conrad Manila, Mall of Asia Complex (MOA), Pasay City",
  "locality_verbose": "S Maison, Conrad Manila, Mall of Asia Complex (MOA), Pasay City, Pasay City",
  "longitude": 120.9804237,
  "zipcode": ""
},
{
  "id": 6309995,
  "address": "Level 2, Greenbelt 5, Ayala Center, Greenbelt, Makati City",
  "city": "Makati City",
  "city_id": 63,
  "country_id": 162,
  "latitude": 14.552764,
  "locality": "Greenbelt 5, San Lorenzo, Makati City",
  "locality_verbose": "Greenbelt 5, San Lorenzo, Makati City, Makati City",
  "longitude": 121.020933,
  "zipcode": ""
},
{
  "id": 18343591,
  "address": "16 East Capitol Drive, Kapitolyo, Pasig City",
  "city": "Pasig City",
  "city_id": 63,
  "country_id": 162,
  "latitude": 14.57159901,
  "locality": "Kapitolyo",
  "locality_verbose": "Kapitolyo, Pasig City",
  "longitude": 121.0607143,
  "zipcode": ""
},
{
  "id": 6313982,
  "address": "Ground Floor, South Wing, SM Mall of Asia, Mall of Asia Complex (MOA), Pasay City",
  "city": "Pasay City",
  "city_id": 63,
  "country_id": 162,
  "latitude": 14.53413359,
  "locality": "South Wing, SM Mall of Asia, Mall of Asia Complex (MOA), Pasay City",
  "locality_verbose": "South Wing, SM Mall of Asia, Mall of Asia Complex (MOA), Pasay City, Pasay City",
  "longitude": 120.981456,
  "zipcode": ""
},
{
  "id": 6312892,
  "address": "115 Aguinaldo Highway, Mendez Crossing West, Tagaytay City",
  "city": "Tagaytay City",
  "city_id": 63,
  "country_id": 162,
  "latitude": 14.09475193,
  "locality": "Tagaytay City",
  "locality_verbose": "Tagaytay City, Tagaytay City",
  "longitude": 120.9148947,
  "zipcode": ""
},
{
  "id": 18271057,
  "address": "Forbes Town Center, Burgos Circle, Bonifacio Global City, Taguig City",
  "city": "Taguig City",
  "city_id": 63,
  "country_id": 162,
  "latitude": 14.55042394,
  "locality": "Burgos Circle, Bonifacio Global City, Taguig City",
  "locality_verbose": "Burgos Circle, Bonifacio Global City, Taguig City, Taguig City",
  "longitude": 121.0445379,
  "zipcode": ""
},
{
  "id": 18618697,
  "address": "Second Floor, The Podium, ADB Avenue, Ortigas, Mandaluyong City",
  "city": "Mandaluyong City",
  "city_id": 63,
  "country_id": 162,
  "latitude": 14.58475351,
  "locality": "The Podium, Ortigas, Mandaluyong City",
  "locality_verbose": "The Podium, Ortigas, Mandaluyong City, Mandaluyong City",
  "longitude": 121.0589454,
  "zipcode": ""
},
{
  "id": 18245912,
  "address": "B3, Bonifacio High Street, 9th Avenue, Bonifacio Global City, Taguig City",
  "city": "Taguig City",
  "city_id": 63,
  "country_id": 162,
  "latitude": 14.551061,
  "locality": "Bonifacio High Street, Bonifacio Global City, Taguig City",
  "locality_verbose": "Bonifacio High Street, Bonifacio Global City, Taguig City, Taguig City",
  "longitude": 121.050578,
  "zipcode": ""
},
{
  "id": 6312828,
  "address": "Fifth Floor, SM Aura Premier, C5 Road Corner 26th Street, Bonifacio Global City, Taguig City",
  "city": "Taguig City",
  "city_id": 63,
  "country_id": 162,
  "latitude": 14.54577705,
  "locality": "SM Aura Premier, Bonifacio Global City, Taguig City",
  "locality_verbose": "SM Aura Premier, Bonifacio Global City, Taguig City, Taguig City",
  "longitude": 121.0534304,
  "zipcode": ""
},
{
  "id": 6310802,
  "address": "The Fort Strip, 28th Street, Bonifacio Global City, Taguig City",
  "city": "Taguig City",
  "city_id": 63,
  "country_id": 162,
  "latitude": 14.549784,
  "locality": "The Fort Strip, Bonifacio Global City, Taguig City",
  "locality_verbose": "The Fort Strip, Bonifacio Global City, Taguig City, Taguig City",
  "longitude": 121.047385,
  "zipcode": ""
},
{
  "id": 18422155,
  "address": "Fourth Floor, Century City Mall, Kalayaan Avenue, Poblacion, Makati City",
  "city": "Makati City",
  "city_id": 63,
  "country_id": 162,
  "latitude": 14.56545629,
  "locality": "Century City Mall, Poblacion, Makati City",
  "locality_verbose": "Century City Mall, Poblacion, Makati City, Makati City",
  "longitude": 121.0277285,
  "zipcode": ""
},
{
  "id": 6315799,
  "address": "Magiting Corner Maginhawa Street, Teachers Village, Quezon City",
  "city": "Quezon City",
  "city_id": 63,
  "country_id": 162,
  "latitude": 14.64706995,
  "locality": "Teachers Village",
  "locality_verbose": "Teachers Village, Quezon City",
  "longitude": 121.0580546,
  "zipcode": ""
},
{
  "id": 6316532,
  "address": "Ground Floor, UP Town Center, Katipunan Avenue, Diliman, Quezon City",
  "city": "Quezon City",
  "city_id": 63,
  "country_id": 162,
  "latitude": 14.64904737,
  "locality": "UP Town Center, Diliman, Quezon City",
  "locality_verbose": "UP Town Center, Diliman, Quezon City, Quezon City",
  "longitude": 121.0751101,
  "zipcode": ""
},
{
  "id": 6312625,
  "address": "Ground Floor, UP Town Center, Katipunan Avenue, Diliman, Quezon City",
  "city": "Quezon City",
  "city_id": 63,
  "country_id": 162,
  "latitude": 14.64977494,
  "locality": "UP Town Center, Diliman, Quezon City",
  "locality_verbose": "UP Town Center, Diliman, Quezon City, Quezon City",
  "longitude": 121.0751808,
  "zipcode": ""
},
{
  "id": 6313503,
  "address": "Bautista Corner Tordesillas Street, Salcedo Village, Makati City",
  "city": "Makati City",
  "city_id": 63,
  "country_id": 162,
  "latitude": 14.56092784,
  "locality": "Salcedo Village",
  "locality_verbose": "Salcedo Village, Makati City",
  "longitude": 121.024136,
  "zipcode": ""
},
{
  "id": 18595218,
  "address": "Third Floor, Glorietta 4, Ayala Center, Glorietta Complex, Makati City",
  "city": "Makati City",
  "city_id": 63,
  "country_id": 162,
  "latitude": 14.55076826,
  "locality": "Glorietta 4, Glorietta Complex, Makati City",
  "locality_verbose": "Glorietta 4, Glorietta Complex, Makati City, Makati City",
  "longitude": 121.02534,
  "zipcode": ""
},
{
  "id": 6304566,
  "address": "Level 2, Greenbelt 5, Ayala Center, Greenbelt, Makati City",
  "city": "Makati City",
  "city_id": 63,
  "country_id": 162,
  "latitude": 14.552607,
  "locality": "Greenbelt 5, San Lorenzo, Makati City",
  "locality_verbose": "Greenbelt 5, San Lorenzo, Makati City, Makati City",
  "longitude": 121.021155,
  "zipcode": ""
},
{
  "id": 6317761,
  "address": "Ground Floor, Edades Tower And Garden Villas, Amorsolo Corner Waterfront Drive, Rockwell, Makati City",
  "city": "Makati City",
  "city_id": 63,
  "country_id": 162,
  "latitude": 14.565847,
  "locality": "Rockwell",
  "locality_verbose": "Rockwell, Makati City",
  "longitude": 121.036368,
  "zipcode": ""
},
{
  "id": 6313717,
  "address": "Fourth Floor, Mega Fashion Hall, SM Megamall, Ortigas, Mandaluyong City",
  "city": "Mandaluyong City",
  "city_id": 63,
  "country_id": 162,
  "latitude": 14.58367041,
  "locality": "SM Megamall, Ortigas, Mandaluyong City",
  "locality_verbose": "SM Megamall, Ortigas, Mandaluyong City, Mandaluyong City",
  "longitude": 121.0560567,
  "zipcode": ""
},
{
  "id": 6316350,
  "address": "Westgate Center, Filinvest City, Muntinlupa City",
  "city": "Muntinlupa City",
  "city_id": 63,
  "country_id": 162,
  "latitude": 14.42157298,
  "locality": "Westgate Center, Filinvest City, Mutinlupa City",
  "locality_verbose": "Westgate Center, Filinvest City, Mutinlupa City, Muntinlupa City",
  "longitude": 121.0342154,
  "zipcode": ""
},
{
  "id": 18268213,
  "address": "Third Floor, Uptown Place Mall, 36th Street Corner 9th Avenue, Bonifacio Global City, Taguig City",
  "city": "Taguig City",
  "city_id": 63,
  "country_id": 162,
  "latitude": 14.55681013,
  "locality": "Uptown Place Mall, Bonifacio Global City, Taguig City",
  "locality_verbose": "Uptown Place Mall, Bonifacio Global City, Taguig City, Taguig City",
  "longitude": 121.0538992,
  "zipcode": ""
},
{
  "id": 6302378,
  "address": "Makati Shangri-La,   Makati City Ayala Corner Makati Avenue, San Lorenzo, Makati City",
  "city": "Makati City",
  "city_id": 63,
  "country_id": 162,
  "latitude": 14.55379246,
  "locality": "Makati Shangri-La, Manila, San Lorenzo, Makati City",
  "locality_verbose": "Makati Shangri-La, Manila, San Lorenzo, Makati City, Makati City",
  "longitude": 121.0245099,
  "zipcode": ""
},
{
  "id": 6312811,
  "address": "Ground Floor, South Wing, SM Mall of Asia, Mall of Asia Complex (MOA), Pasay City",
  "city": "Pasay City",
  "city_id": 63,
  "country_id": 162,
  "latitude": 14.53413911,
  "locality": "South Wing, SM Mall of Asia, Mall of Asia Complex (MOA), Pasay City",
  "locality_verbose": "South Wing, SM Mall of Asia, Mall of Asia Complex (MOA), Pasay City, Pasay City",
  "longitude": 120.9813897,
  "zipcode": ""
},
{
  "id": 18562172,
  "address": "Upper Ground Floor, Main Building, SM City North EDSA, Bago Bantay, Quezon City",
  "city": "Quezon City",
  "city_id": 63,
  "country_id": 162,
  "latitude": 14.65648716,
  "locality": "SM City North EDSA, Bago Bantay, Quezon City",
  "locality_verbose": "SM City North EDSA, Bago Bantay, Quezon City, Quezon City",
  "longitude": 121.0309602,
  "zipcode": ""
},
{
  "id": 6307906,
  "address": "Ground Floor, Fort Pointe 2 Building, The Fort Strip, 28th Street, Bonifacio Global City, Taguig City",
  "city": "Taguig City",
  "city_id": 63,
  "country_id": 162,
  "latitude": 14.549577,
  "locality": "The Fort Strip, Bonifacio Global City, Taguig City",
  "locality_verbose": "The Fort Strip, Bonifacio Global City, Taguig City, Taguig City",
  "longitude": 121.048447,
  "zipcode": ""
},
{
  "id": 6302438,
  "address": "79-A Maginhawa Street, Teachers Village, Quezon City",
  "city": "Quezon City",
  "city_id": 63,
  "country_id": 162,
  "latitude": 14.64697751,
  "locality": "Teachers Village",
  "locality_verbose": "Teachers Village, Quezon City",
  "longitude": 121.0577847,
  "zipcode": ""
},
{
  "id": 6313173,
  "address": "Second Floor, Alphaland Makati Place, Ayala Avenue Extension Corner Malugay Street, Bel-Air, Makati City",
  "city": "Makati City",
  "city_id": 63,
  "country_id": 162,
  "latitude": 14.56283529,
  "locality": "Alphaland Makati Place, Bel-Air, Makati City",
  "locality_verbose": "Alphaland Makati Place, Bel-Air, Makati City, Makati City",
  "longitude": 121.0162771,
  "zipcode": ""
},
{
  "id": 6301760,
  "address": "810 Benavidez Street, Binondo, Manila",
  "city": "Manila",
  "city_id": 63,
  "country_id": 162,
  "latitude": 14.60189049,
  "locality": "Binondo",
  "locality_verbose": "Binondo, Manila",
  "longitude": 120.9759692,
  "zipcode": ""
},
{
  "id": 18343481,
  "address": "Second Floor, UP Town Center, Katipunan Avenue, Diliman, Quezon City",
  "city": "Quezon City",
  "city_id": 63,
  "country_id": 162,
  "latitude": 14.65134362,
  "locality": "UP Town Center, Diliman, Quezon City",
  "locality_verbose": "UP Town Center, Diliman, Quezon City, Quezon City",
  "longitude": 121.0754457,
  "zipcode": ""
},
{
  "id": 6314041,
  "address": "105 Santo Domingo Corner Sgt. Alcaraz Avenue, Santo Domingo, Banawe, Quezon City",
  "city": "Quezon City",
  "city_id": 63,
  "country_id": 162,
  "latitude": 14.63598852,
  "locality": "Banawe",
  "locality_verbose": "Banawe, Quezon City",
  "longitude": 121.0057719,
  "zipcode": ""
},
{
  "id": 18536131,
  "address": "780 Banawe Street, Banawe, Quezon City",
  "city": "Quezon City",
  "city_id": 63,
  "country_id": 162,
  "latitude": 14.63592461,
  "locality": "Banawe",
  "locality_verbose": "Banawe, Quezon City",
  "longitude": 121.00136,
  "zipcode": ""
},
{
  "id": 6314428,
  "address": "Ground Floor, V Corporate Center, 125 L. P. Leviste Street, Salcedo Village, Makati City",
  "city": "Makati City",
  "city_id": 63,
  "country_id": 162,
  "latitude": 14.56013604,
  "locality": "Salcedo Village",
  "locality_verbose": "Salcedo Village, Makati City",
  "longitude": 121.0247523,
  "zipcode": ""
},
{
  "id": 18336039,
  "address": "Second Floor, Crossroads Building, 32nd Street, Bonifacio Global City, Taguig City",
  "city": "Taguig City",
  "city_id": 63,
  "country_id": 162,
  "latitude": 14.553553,
  "locality": "Crossroads Building, Bonifacio Global City, Taguig City",
  "locality_verbose": "Crossroads Building, Bonifacio Global City, Taguig City, Taguig City",
  "longitude": 121.051011,
  "zipcode": ""
},
{
  "id": 6314006,
  "address": "Ground Floor, Mega Fashion Hall, SM Megamall, Ortigas, Mandaluyong City",
  "city": "Mandaluyong City",
  "city_id": 63,
  "country_id": 162,
  "latitude": 14.58323205,
  "locality": "SM Megamall, Ortigas, Mandaluyong City",
  "locality_verbose": "SM Megamall, Ortigas, Mandaluyong City, Mandaluyong City",
  "longitude": 121.0559443,
  "zipcode": ""
},
{
  "id": 18426737,
  "address": "248 Aguirre Avenue, BF Homes, Parañaque City",
  "city": "Parañaque City",
  "city_id": 63,
  "country_id": 162,
  "latitude": 14.45493392,
  "locality": "BF Homes",
  "locality_verbose": "BF Homes, Parañaque City",
  "longitude": 121.0154561,
  "zipcode": ""
},
{
  "id": 6309607,
  "address": "66 Esteban Abada Street, Loyola Heights, Quezon City",
  "city": "Quezon City",
  "city_id": 63,
  "country_id": 162,
  "latitude": 14.63854086,
  "locality": "Loyola Heights",
  "locality_verbose": "Loyola Heights, Quezon City",
  "longitude": 121.0732915,
  "zipcode": ""
},
{
  "id": 6315689,
  "address": "Hole in the Wall, Fourth Floor, Century City Mall, Kalayaan Avenue, Poblacion, Makati City",
  "city": "Makati City",
  "city_id": 63,
  "country_id": 162,
  "latitude": 14.565515,
  "locality": "Century City Mall, Poblacion, Makati City",
  "locality_verbose": "Century City Mall, Poblacion, Makati City, Makati City",
  "longitude": 121.027456,
  "zipcode": ""
},
{
  "id": 6301285,
  "address": "Level 1, Greenbelt 3, Ayala Center, Greenbelt, Makati City",
  "city": "Makati City",
  "city_id": 63,
  "country_id": 162,
  "latitude": 14.55197,
  "locality": "Greenbelt 3, San Lorenzo, Makati City",
  "locality_verbose": "Greenbelt 3, San Lorenzo, Makati City, Makati City",
  "longitude": 121.022035,
  "zipcode": ""
},
{
  "id": 6317534,
  "address": "Streat: Maginhawa Food Park, Teachers Village, Quezon City",
  "city": "Quezon City",
  "city_id": 63,
  "country_id": 162,
  "latitude": 14.646496,
  "locality": "StrEat: Maginhawa Food Park, Teachers Village, Quezon City",
  "locality_verbose": "StrEat: Maginhawa Food Park, Teachers Village, Quezon City, Quezon City",
  "longitude": 121.058779,
  "zipcode": ""
},
{
  "id": 6310406,
  "address": "Fifth Floor, SM Aura Premier, C5 Road Corner 26th Street, Bonifacio Global City, Taguig City",
  "city": "Taguig City",
  "city_id": 63,
  "country_id": 162,
  "latitude": 14.54578159,
  "locality": "SM Aura Premier, Bonifacio Global City, Taguig City",
  "locality_verbose": "SM Aura Premier, Bonifacio Global City, Taguig City, Taguig City",
  "longitude": 121.0534086,
  "zipcode": ""
},
{
  "id": 6303791,
  "address": "Second Floor, Mega Atrium, SM Megamall, Ortigas, Mandaluyong City",
  "city": "Mandaluyong City",
  "city_id": 63,
  "country_id": 162,
  "latitude": 14.58438523,
  "locality": "SM Megamall, Ortigas, Mandaluyong City",
  "locality_verbose": "SM Megamall, Ortigas, Mandaluyong City, Mandaluyong City",
  "longitude": 121.0570068,
  "zipcode": ""
},
{
  "id": 6308524,
  "address": "31 West Avenue, Del Monte, Quezon City",
  "city": "Quezon City",
  "city_id": 63,
  "country_id": 162,
  "latitude": 14.64124076,
  "locality": "Del Monte",
  "locality_verbose": "Del Monte, Quezon City",
  "longitude": 121.0267052,
  "zipcode": ""
},
{
  "id": 18439436,
  "address": "Building J, SM by the Bay, SM Mall of Asia, Mall of Asia Complex (MOA), Pasay City",
  "city": "Pasay City",
  "city_id": 63,
  "country_id": 162,
  "latitude": 14.53180496,
  "locality": "SM by the Bay, SM Mall of Asia, Mall of Asia Complex (MOA), Pasay City",
  "locality_verbose": "SM by the Bay, SM Mall of Asia, Mall of Asia Complex (MOA), Pasay City, Pasay City",
  "longitude": 120.9792204,
  "zipcode": ""
},
{
  "id": 6308143,
  "address": "Fourth Floor, The Block, SM City North EDSA, Bago Bantay, Quezon City",
  "city": "Quezon City",
  "city_id": 63,
  "country_id": 162,
  "latitude": 14.65617804,
  "locality": "The Block, SM City North EDSA, Bago Bantay, Quezon City",
  "locality_verbose": "The Block, SM City North EDSA, Bago Bantay, Quezon City, Quezon City",
  "longitude": 121.0323158,
  "zipcode": ""
},
{
  "id": 18255669,
  "address": "Second Floor, Mega Fashion Hall, SM Megamall, Ortigas, Mandaluyong City",
  "city": "Mandaluyong City",
  "city_id": 63,
  "country_id": 162,
  "latitude": 14.58324276,
  "locality": "SM Megamall, Ortigas, Mandaluyong City",
  "locality_verbose": "SM Megamall, Ortigas, Mandaluyong City, Mandaluyong City",
  "longitude": 121.0559695,
  "zipcode": ""
},
{
  "id": 6304411,
  "address": "Fourth Floor, Bridgeway, SM Megamall, Ortigas, Mandaluyong City",
  "city": "Mandaluyong City",
  "city_id": 63,
  "country_id": 162,
  "latitude": 14.5844,
  "locality": "SM Megamall, Ortigas, Mandaluyong City",
  "locality_verbose": "SM Megamall, Ortigas, Mandaluyong City, Mandaluyong City",
  "longitude": 121.057159,
  "zipcode": ""
},
{
  "id": 18283076,
  "address": "14 Scout Rallos Street, Laging Handa, Quezon City",
  "city": "Quezon City",
  "city_id": 63,
  "country_id": 162,
  "latitude": 14.63522716,
  "locality": "Tomas Morato",
  "locality_verbose": "Tomas Morato, Quezon City",
  "longitude": 121.0298884,
  "zipcode": ""
},
{
  "id": 18283069,
  "address": "B Hotel Quezon City, 14 Scout Rallos Street, Laging Handa, Quezon City",
  "city": "Quezon City",
  "city_id": 63,
  "country_id": 162,
  "latitude": 14.63522846,
  "locality": "Tomas Morato",
  "locality_verbose": "Tomas Morato, Quezon City",
  "longitude": 121.0298481,
  "zipcode": ""
},
{
  "id": 18283078,
  "address": "B Hotel Quezon City, 14 Scout Rallos Street, Laging Handa, Quezon City",
  "city": "Quezon City",
  "city_id": 63,
  "country_id": 162,
  "latitude": 14.63522911,
  "locality": "Tomas Morato",
  "locality_verbose": "Tomas Morato, Quezon City",
  "longitude": 121.0298431,
  "zipcode": ""
},
{
  "id": 6316593,
  "address": "Second Floor, Fisher Mall, Quezon Avenue, Del Monte, Quezon City",
  "city": "Quezon City",
  "city_id": 63,
  "country_id": 162,
  "latitude": 14.63311208,
  "locality": "Fisher Mall, Del Monte, Quezon City",
  "locality_verbose": "Fisher Mall, Del Monte, Quezon City, Quezon City",
  "longitude": 121.0193262,
  "zipcode": ""
},
{
  "id": 6309661,
  "address": "179 Maginhawa Street, Sikatuna Village, Quezon City",
  "city": "Quezon City",
  "city_id": 63,
  "country_id": 162,
  "latitude": 14.638519,
  "locality": "Sikatuna Village",
  "locality_verbose": "Sikatuna Village, Quezon City",
  "longitude": 121.061487,
  "zipcode": ""
},
{
  "id": 6317528,
  "address": "Back Of Makati Cinema Square, Amorsolo Street, Legaspi Village, Makati City",
  "city": "Makati City",
  "city_id": 63,
  "country_id": 162,
  "latitude": 14.552315,
  "locality": "Legaspi Village",
  "locality_verbose": "Legaspi Village, Makati City",
  "longitude": 121.014811,
  "zipcode": ""
},
{
  "id": 6316758,
  "address": "Building E, SM by the Bay, SM Mall of Asia, Mall of Asia Complex (MOA), Pasay City",
  "city": "Pasay City",
  "city_id": 63,
  "country_id": 162,
  "latitude": 14.53810795,
  "locality": "SM by the Bay, SM Mall of Asia, Mall of Asia Complex (MOA), Pasay City",
  "locality_verbose": "SM by the Bay, SM Mall of Asia, Mall of Asia Complex (MOA), Pasay City, Pasay City",
  "longitude": 120.9792301,
  "zipcode": ""
},
{
  "id": 6318734,
  "address": "7th Floor, City Garden Grand Hotel, Makati Corner Kalayaan Avenue, Poblacion, Makati City 1210",
  "city": "Makati City",
  "city_id": 63,
  "country_id": 162,
  "latitude": 14.56470248,
  "locality": "City Garden Grand Hotel, Poblacion, Makati City",
  "locality_verbose": "City Garden Grand Hotel, Poblacion, Makati City, Makati City",
  "longitude": 121.0292004,
  "zipcode": 1210
},
{
  "id": 6316899,
  "address": "Ground Floor, Hyatt City of Dreams Manila, Aseana Boulevard Corner Macapagal Avenue, Entertainment City, Parañaque City",
  "city": "Parañaque City",
  "city_id": 63,
  "country_id": 162,
  "latitude": 14.52279104,
  "locality": "City of Dreams Manila, Entertainment City, Parañaque City",
  "locality_verbose": "City of Dreams Manila, Entertainment City, Parañaque City, Parañaque City",
  "longitude": 120.9926777,
  "zipcode": ""
},
{
  "id": 6317258,
  "address": "63 Maginhawa Street, UP Village, Diliman, Quezon City",
  "city": "Quezon City",
  "city_id": 63,
  "country_id": 162,
  "latitude": 14.64806775,
  "locality": "Diliman",
  "locality_verbose": "Diliman, Quezon City",
  "longitude": 121.0571185,
  "zipcode": ""
},
{
  "id": 6308658,
  "address": "Upper Ground Floor, SM City Fairview, Novaliches, Quezon City",
  "city": "Quezon City",
  "city_id": 63,
  "country_id": 162,
  "latitude": 14.73458094,
  "locality": "SM City Fairview, Novaliches, Quezon City",
  "locality_verbose": "SM City Fairview, Novaliches, Quezon City, Quezon City",
  "longitude": 121.0575067,
  "zipcode": ""
},
{
  "id": 6302202,
  "address": "Second Floor, Glorietta 1, Ayala Center, Glorietta Complex, Makati City",
  "city": "Makati City",
  "city_id": 63,
  "country_id": 162,
  "latitude": 14.55036715,
  "locality": "Glorietta 1, Glorietta Complex, Makati City",
  "locality_verbose": "Glorietta 1, Glorietta Complex, Makati City, Makati City",
  "longitude": 121.0256816,
  "zipcode": ""
},
{
  "id": 18544927,
  "address": "Upper Ground Floor, City of Dreams Manila, Aseana Boulevard Corner Macapagal Avenue, Entertainment City, Parañaque City",
  "city": "Parañaque City",
  "city_id": 63,
  "country_id": 162,
  "latitude": 14.52304745,
  "locality": "City of Dreams Manila, Entertainment City, Parañaque City",
  "locality_verbose": "City of Dreams Manila, Entertainment City, Parañaque City, Parañaque City",
  "longitude": 120.9925956,
  "zipcode": ""
},
{
  "id": 6310773,
  "address": "Kalayaan Avenue, Beside Liberty Hotel, Diliman, Quezon City",
  "city": "Quezon City",
  "city_id": 63,
  "country_id": 162,
  "latitude": 14.63495856,
  "locality": "Diliman",
  "locality_verbose": "Diliman, Quezon City",
  "longitude": 121.0543524,
  "zipcode": ""
},
{
  "id": 6318636,
  "address": "Second Floor, Ascott Bonifacio Global City Manila, 28th Street Corner 5th Avenue, Bonifacio Global City, Taguig City",
  "city": "Taguig City",
  "city_id": 63,
  "country_id": 162,
  "latitude": 14.55099315,
  "locality": "Bonifacio Global City",
  "locality_verbose": "Bonifacio Global City, Taguig City",
  "longitude": 121.0469817,
  "zipcode": ""
},
{
  "id": 18291001,
  "address": "Upper Ground, Pioneer Highlands North, Pioneer cor. Madison Sts, Buayang Bato, Mandaluyong City",
  "city": "Mandaluyong City",
  "city_id": 63,
  "country_id": 162,
  "latitude": 14.5724508,
  "locality": "Buayang Bato",
  "locality_verbose": "Buayang Bato, Mandaluyong City",
  "longitude": 121.0501169,
  "zipcode": ""
},
{
  "id": 6300576,
  "address": "Ground Floor, Entertainment Mall, SM Mall of Asia, Mall of Asia Complex (MOA), Pasay City",
  "city": "Pasay City",
  "city_id": 63,
  "country_id": 162,
  "latitude": 14.53484727,
  "locality": "Entertainment Mall, SM Mall of Asia, Mall of Asia Complex (MOA), Pasay City",
  "locality_verbose": "Entertainment Mall, SM Mall of Asia, Mall of Asia Complex (MOA), Pasay City, Pasay City",
  "longitude": 120.9803486,
  "zipcode": ""
},
{
  "id": 6316762,
  "address": "Upper Ground Floor, City of Dreams Manila, Aseana Boulevard Corner Macapagal Avenue, Entertainment City, Parañaque City",
  "city": "Parañaque City",
  "city_id": 63,
  "country_id": 162,
  "latitude": 14.52362647,
  "locality": "City of Dreams Manila, Entertainment City, Parañaque City",
  "locality_verbose": "City of Dreams Manila, Entertainment City, Parañaque City, Parañaque City",
  "longitude": 120.9933935,
  "zipcode": ""
},
{
  "id": 18442136,
  "address": "City Garden Hotel Makati, 7870 Durban Street Corner Makati Avenue, Poblacion, Makati City 1210",
  "city": "Makati City",
  "city_id": 63,
  "country_id": 162,
  "latitude": 14.56472162,
  "locality": "City Garden Hotel, Poblacion, Makati City",
  "locality_verbose": "City Garden Hotel, Poblacion, Makati City, Makati City",
  "longitude": 121.0292369,
  "zipcode": 1210
},
{
  "id": 18208156,
  "address": "Ground Floor, Hyatt City of Dreams Manila, Entertainment City, Parañaque City",
  "city": "Parañaque City",
  "city_id": 63,
  "country_id": 162,
  "latitude": 14.52274138,
  "locality": "City of Dreams Manila, Entertainment City, Parañaque City",
  "locality_verbose": "City of Dreams Manila, Entertainment City, Parañaque City, Parañaque City",
  "longitude": 120.9926667,
  "zipcode": ""
},
{
  "id": 6316907,
  "address": "Upper Ground Floor, City of Dreams Manila, Aseana Boulevard Corner Macapagal Avenue, Entertainment City, Parañaque City",
  "city": "Parañaque City",
  "city_id": 63,
  "country_id": 162,
  "latitude": 14.52354954,
  "locality": "City of Dreams Manila, Entertainment City, Parañaque City",
  "locality_verbose": "City of Dreams Manila, Entertainment City, Parañaque City, Parañaque City",
  "longitude": 120.9924906,
  "zipcode": ""
},
{
  "id": 6314371,
  "address": "Ground Floor, FCL Center, Xavierville Avenue, Loyola Heights, Quezon City",
  "city": "Quezon City",
  "city_id": 63,
  "country_id": 162,
  "latitude": 14.63623863,
  "locality": "Loyola Heights",
  "locality_verbose": "Loyola Heights, Quezon City",
  "longitude": 121.0652493,
  "zipcode": ""
},
{
  "id": 18641657,
  "address": "Third Floor, Ayala Malls South Park, Filinvest City, Muntinlupa City",
  "city": "Muntinlupa City",
  "city_id": 63,
  "country_id": 162,
  "latitude": 14.4119428,
  "locality": "Filinvest City",
  "locality_verbose": "Filinvest City, Muntinlupa City",
  "longitude": 121.0470143,
  "zipcode": ""
},
{
  "id": 18324171,
  "address": "Third Floor, Market! Market!, Bonifacio Global City, Taguig City",
  "city": "Taguig City",
  "city_id": 63,
  "country_id": 162,
  "latitude": 14.55016,
  "locality": "Market! Market!, Bonifacio Global City, Taguig City",
  "locality_verbose": "Market! Market!, Bonifacio Global City, Taguig City, Taguig City",
  "longitude": 121.056182,
  "zipcode": ""
},
{
  "id": 18537010,
  "address": "5 Capitol Hills Drive, Old Balara, Quezon City",
  "city": "Quezon City",
  "city_id": 63,
  "country_id": 162,
  "latitude": 14.66518584,
  "locality": "Old Balara",
  "locality_verbose": "Old Balara, Quezon City",
  "longitude": 121.0806777,
  "zipcode": ""
},
{
  "id": 6308389,
  "address": "Wincel Building, Filipinas Avenue, UPS 5, San Isidro, Parañaque City",
  "city": "Parañaque City",
  "city_id": 63,
  "country_id": 162,
  "latitude": 14.46448335,
  "locality": "San Isidro",
  "locality_verbose": "San Isidro, Parañaque City",
  "longitude": 121.0171033,
  "zipcode": ""
},
{
  "id": 18658772,
  "address": "Central Park Maginhawa, Maginhawa Street Corner Magiting Street, Teachers Village, Quezon City",
  "city": "Quezon City",
  "city_id": 63,
  "country_id": 162,
  "latitude": 14.6462989,
  "locality": "Central Park Maginhawa, Teachers Village, Quezon City",
  "locality_verbose": "Central Park Maginhawa, Teachers Village, Quezon City, Quezon City",
  "longitude": 121.0592153,
  "zipcode": ""
},
{
  "id": 18534908,
  "address": "The Hub at R20 Food Park, Road 20 Mindanao Avenue, Project 8, Quezon City",
  "city": "Quezon City",
  "city_id": 63,
  "country_id": 162,
  "latitude": 14.67205295,
  "locality": "The Hub at R20 Food Park, Project 8, Quezon City",
  "locality_verbose": "The Hub at R20 Food Park, Project 8, Quezon City, Quezon City",
  "longitude": 121.03161,
  "zipcode": ""
},
{
  "id": 18487135,
  "address": "Food Choices, Third Floor, Glorietta 4, Ayala Center, Glorietta Complex, Makati City",
  "city": "Makati City",
  "city_id": 63,
  "country_id": 162,
  "latitude": 14.55127224,
  "locality": "Glorietta 4, Glorietta Complex, Makati City",
  "locality_verbose": "Glorietta 4, Glorietta Complex, Makati City, Makati City",
  "longitude": 121.0274673,
  "zipcode": ""
},
{
  "id": 18687340,
  "address": "Second Floor, Venice Grand Canal Mall, Mc Kinley Hill, Taguig City, Mc Kinley Hill, Taguig City",
  "city": "Taguig City",
  "city_id": 63,
  "country_id": 162,
  "latitude": 14.53406187,
  "locality": "Venice Grand Canal Mall, McKinley Hill, Taguig City",
  "locality_verbose": "Venice Grand Canal Mall, McKinley Hill, Taguig City, Taguig City",
  "longitude": 121.0510144,
  "zipcode": ""
},
{
  "id": 18739503,
  "address": "Cinema Level, Fourth Floor, Festival Mall, Filinvest City, Muntinlupa City",
  "city": "Muntinlupa City",
  "city_id": 63,
  "country_id": 162,
  "latitude": 14.41731045,
  "locality": "Festival Mall, Filinvest City, Muntinlupa City",
  "locality_verbose": "Festival Mall, Filinvest City, Muntinlupa City , Muntinlupa City",
  "longitude": 121.0404978,
  "zipcode": ""
},
{
  "id": 6317637,
  "address": "Third Floor, Century City Mall, Kalayaan Avenue, Poblacion, Makati City",
  "city": "Makati City",
  "city_id": 63,
  "country_id": 162,
  "latitude": 14.565443,
  "locality": "Century City Mall, Poblacion, Makati City",
  "locality_verbose": "Century City Mall, Poblacion, Makati City, Makati City",
  "longitude": 121.027535,
  "zipcode": ""
},
{
  "id": 6301742,
  "address": "Ground Floor, Entertainment Mall, SM Mall of Asia, Mall of Asia Complex (MOA), Pasay City",
  "city": "Pasay City",
  "city_id": 63,
  "country_id": 162,
  "latitude": 14.53460321,
  "locality": "Entertainment Mall, SM Mall of Asia, Mall of Asia Complex (MOA), Pasay City",
  "locality_verbose": "Entertainment Mall, SM Mall of Asia, Mall of Asia Complex (MOA), Pasay City, Pasay City",
  "longitude": 120.9799473,
  "zipcode": ""
},
{
  "id": 6313649,
  "address": "Building I, SM by the Bay, SM Mall of Asia, Mall of Asia Complex (MOA), Pasay City",
  "city": "Pasay City",
  "city_id": 63,
  "country_id": 162,
  "latitude": 14.5332122,
  "locality": "SM by the Bay, SM Mall of Asia, Mall of Asia Complex (MOA), Pasay City",
  "locality_verbose": "SM by the Bay, SM Mall of Asia, Mall of Asia Complex (MOA), Pasay City, Pasay City",
  "longitude": 120.9793307,
  "zipcode": ""
},
{
  "id": 18278173,
  "address": "Second Floor, Main Mall, SM Mall of Asia, Mall of Asia Complex (MOA), Pasay City",
  "city": "Pasay City",
  "city_id": 63,
  "country_id": 162,
  "latitude": 14.5358222,
  "locality": "Main Mall, SM Mall of Asia, Mall of Asia Complex (MOA), Pasay City",
  "locality_verbose": "Main Mall, SM Mall of Asia, Mall of Asia Complex (MOA), Pasay City, Pasay City",
  "longitude": 120.9824334,
  "zipcode": ""
},
{
  "id": 18654932,
  "address": "#MOAEats, Ground Floor, North Wing, SM Mall of Asia, Mall of Asia Complex (MOA), Pasay City",
  "city": "Pasay City",
  "city_id": 63,
  "country_id": 162,
  "latitude": 14.53649531,
  "locality": "North Wing, SM Mall of Asia, Mall of Asia Complex (MOA), Pasay City",
  "locality_verbose": "North Wing, SM Mall of Asia, Mall of Asia Complex (MOA), Pasay City, Pasay City",
  "longitude": 120.9803355,
  "zipcode": ""
},
{
  "id": 6316274,
  "address": "Second Floor, Entertainment Mall, SM Mall of Asia, Mall of Asia Complex (MOA), Pasay City",
  "city": "Pasay City",
  "city_id": 63,
  "country_id": 162,
  "latitude": 14.53460061,
  "locality": "Entertainment Mall, SM Mall of Asia, Mall of Asia Complex (MOA), Pasay City",
  "locality_verbose": "Entertainment Mall, SM Mall of Asia, Mall of Asia Complex (MOA), Pasay City, Pasay City",
  "longitude": 120.9803647,
  "zipcode": ""
},
{
  "id": 18369120,
  "address": "Second Floor, Entertainment Mall, SM Mall of Asia, Mall of Asia Complex (MOA), Pasay City",
  "city": "Pasay City",
  "city_id": 63,
  "country_id": 162,
  "latitude": 14.53468305,
  "locality": "Entertainment Mall, SM Mall of Asia, Mall of Asia Complex (MOA), Pasay City",
  "locality_verbose": "Entertainment Mall, SM Mall of Asia, Mall of Asia Complex (MOA), Pasay City, Pasay City",
  "longitude": 120.9800807,
  "zipcode": ""
},
{
  "id": 6300166,
  "address": "Ground Floor, Entertainment Mall, SM Mall of Asia, Mall of Asia Complex (MOA), Pasay City",
  "city": "Pasay City",
  "city_id": 63,
  "country_id": 162,
  "latitude": 14.53401124,
  "locality": "Entertainment Mall, SM Mall of Asia, Mall of Asia Complex (MOA), Pasay City",
  "locality_verbose": "Entertainment Mall, SM Mall of Asia, Mall of Asia Complex (MOA), Pasay City, Pasay City",
  "longitude": 120.9799651,
  "zipcode": ""
},
{
  "id": 6314766,
  "address": "Second Floor, Entertainment Mall, SM Mall of Asia, Mall of Asia Complex (MOA), Pasay City",
  "city": "Pasay City",
  "city_id": 63,
  "country_id": 162,
  "latitude": 14.5357878,
  "locality": "Entertainment Mall, SM Mall of Asia, Mall of Asia Complex (MOA), Pasay City",
  "locality_verbose": "Entertainment Mall, SM Mall of Asia, Mall of Asia Complex (MOA), Pasay City, Pasay City",
  "longitude": 120.9799205,
  "zipcode": ""
},
{
  "id": 6301151,
  "address": "Second Floor, Main Mall, SM Mall of Asia, Mall of Asia Complex (MOA), Pasay City",
  "city": "Pasay City",
  "city_id": 63,
  "country_id": 162,
  "latitude": 14.53604743,
  "locality": "Main Mall, SM Mall of Asia, Mall of Asia Complex (MOA), Pasay City",
  "locality_verbose": "Main Mall, SM Mall of Asia, Mall of Asia Complex (MOA), Pasay City, Pasay City",
  "longitude": 120.9817259,
  "zipcode": ""
},
{
  "id": 6302231,
  "address": "Ground Floor, Entertainment Mall, SM Mall of Asia, Mall of Asia Complex (MOA), Pasay City",
  "city": "Pasay City",
  "city_id": 63,
  "country_id": 162,
  "latitude": 14.53609449,
  "locality": "Entertainment Mall, SM Mall of Asia, Mall of Asia Complex (MOA), Pasay City",
  "locality_verbose": "Entertainment Mall, SM Mall of Asia, Mall of Asia Complex (MOA), Pasay City, Pasay City",
  "longitude": 120.9805377,
  "zipcode": ""
},
{
  "id": 6300631,
  "address": "Building G, SM by the Bay, SM Mall of Asia, Mall of Asia Complex (MOA), Pasay City",
  "city": "Pasay City",
  "city_id": 63,
  "country_id": 162,
  "latitude": 14.53586731,
  "locality": "SM by the Bay, SM Mall of Asia, Mall of Asia Complex (MOA), Pasay City",
  "locality_verbose": "SM by the Bay, SM Mall of Asia, Mall of Asia Complex (MOA), Pasay City, Pasay City",
  "longitude": 120.9790068,
  "zipcode": ""
},
{
  "id": 6316069,
  "address": "Building D, SM by the Bay, SM Mall of Asia, Mall of Asia Complex (MOA), Pasay City",
  "city": "Pasay City",
  "city_id": 63,
  "country_id": 162,
  "latitude": 14.53733619,
  "locality": "SM by the Bay, SM Mall of Asia, Mall of Asia Complex (MOA), Pasay City",
  "locality_verbose": "SM by the Bay, SM Mall of Asia, Mall of Asia Complex (MOA), Pasay City, Pasay City",
  "longitude": 120.9792566,
  "zipcode": ""
},
{
  "id": 6300526,
  "address": "Second Floor, Entertainment Mall, SM Mall of Asia, Mall of Asia Complex (MOA), Pasay City",
  "city": "Pasay City",
  "city_id": 63,
  "country_id": 162,
  "latitude": 14.53401416,
  "locality": "Entertainment Mall, SM Mall of Asia, Mall of Asia Complex (MOA), Pasay City",
  "locality_verbose": "Entertainment Mall, SM Mall of Asia, Mall of Asia Complex (MOA), Pasay City, Pasay City",
  "longitude": 120.9803845,
  "zipcode": ""
},
{
  "id": 6316254,
  "address": "Ground Floor, South Wing, SM Mall of Asia, Mall of Asia Complex (MOA), Pasay City",
  "city": "Pasay City",
  "city_id": 63,
  "country_id": 162,
  "latitude": 14.53406933,
  "locality": "South Wing, SM Mall of Asia, Mall of Asia Complex (MOA), Pasay City",
  "locality_verbose": "South Wing, SM Mall of Asia, Mall of Asia Complex (MOA), Pasay City, Pasay City",
  "longitude": 120.9811489,
  "zipcode": ""
},
{
  "id": 6300531,
  "address": "Second Floor, Entertainment Mall, SM Mall of Asia, Mall of Asia Complex (MOA), Pasay City",
  "city": "Pasay City",
  "city_id": 63,
  "country_id": 162,
  "latitude": 14.53549019,
  "locality": "Entertainment Mall, SM Mall of Asia, Mall of Asia Complex (MOA), Pasay City",
  "locality_verbose": "Entertainment Mall, SM Mall of Asia, Mall of Asia Complex (MOA), Pasay City, Pasay City",
  "longitude": 120.979959,
  "zipcode": ""
},
{
  "id": 18442132,
  "address": "Level 2, S Maison, Conrad Manila, Seaside Boulevard Corner Coral Way, Mall of Asia Complex (MOA), Pasay City",
  "city": "Pasay City",
  "city_id": 63,
  "country_id": 162,
  "latitude": 14.5322629,
  "locality": "S Maison, Conrad Manila, Mall of Asia Complex (MOA), Pasay City",
  "locality_verbose": "S Maison, Conrad Manila, Mall of Asia Complex (MOA), Pasay City, Pasay City",
  "longitude": 120.9804871,
  "zipcode": ""
},
{
  "id": 18306408,
  "address": "Level 2, S Maison, Conrad Manila, Seaside Boulevard Corner Coral Way, Mall of Asia Complex (MOA), Pasay City",
  "city": "Pasay City",
  "city_id": 63,
  "country_id": 162,
  "latitude": 14.53154921,
  "locality": "S Maison, Conrad Manila, Mall of Asia Complex (MOA), Pasay City",
  "locality_verbose": "S Maison, Conrad Manila, Mall of Asia Complex (MOA), Pasay City, Pasay City",
  "longitude": 120.9804415,
  "zipcode": ""
},
{
  "id": 6301701,
  "address": "Second Floor, Entertainment Mall, SM Mall of Asia, Mall of Asia Complex (MOA), Pasay City",
  "city": "Pasay City",
  "city_id": 63,
  "country_id": 162,
  "latitude": 14.53481059,
  "locality": "Entertainment Mall, SM Mall of Asia, Mall of Asia Complex (MOA), Pasay City",
  "locality_verbose": "Entertainment Mall, SM Mall of Asia, Mall of Asia Complex (MOA), Pasay City, Pasay City",
  "longitude": 120.9800771,
  "zipcode": ""
},
{
  "id": 6300573,
  "address": "Ground Floor, North Wing, SM Mall of Asia, Mall of Asia Complex (MOA), Pasay City",
  "city": "Pasay City",
  "city_id": 63,
  "country_id": 162,
  "latitude": 14.53774577,
  "locality": "North Wing, SM Mall of Asia, Mall of Asia Complex (MOA), Pasay City",
  "locality_verbose": "North Wing, SM Mall of Asia, Mall of Asia Complex (MOA), Pasay City, Pasay City",
  "longitude": 120.9809997,
  "zipcode": ""
},
{
  "id": 18268187,
  "address": "Ground Floor, Main Mall, SM Mall of Asia, Mall of Asia Complex (MOA), Pasay City",
  "city": "Pasay City",
  "city_id": 63,
  "country_id": 162,
  "latitude": 14.53583713,
  "locality": "Main Mall, SM Mall of Asia, Mall of Asia Complex (MOA), Pasay City",
  "locality_verbose": "Main Mall, SM Mall of Asia, Mall of Asia Complex (MOA), Pasay City, Pasay City",
  "longitude": 120.9817511,
  "zipcode": ""
},
{
  "id": 18353618,
  "address": "Level 2, S Maison, Conrad Manila, Seaside Boulevard Corner Coral Way, Mall of Asia Complex (MOA), Pasay City",
  "city": "Pasay City",
  "city_id": 63,
  "country_id": 162,
  "latitude": 14.53226419,
  "locality": "S Maison, Conrad Manila, Mall of Asia Complex (MOA), Pasay City",
  "locality_verbose": "S Maison, Conrad Manila, Mall of Asia Complex (MOA), Pasay City, Pasay City",
  "longitude": 120.9804573,
  "zipcode": ""
},
{
  "id": 6300756,
  "address": "Second Floor, Entertainment Mall, SM Mall of Asia, Mall of Asia Complex (MOA), Pasay City",
  "city": "Pasay City",
  "city_id": 63,
  "country_id": 162,
  "latitude": 14.53437927,
  "locality": "Entertainment Mall, SM Mall of Asia, Mall of Asia Complex (MOA), Pasay City",
  "locality_verbose": "Entertainment Mall, SM Mall of Asia, Mall of Asia Complex (MOA), Pasay City, Pasay City",
  "longitude": 120.9800113,
  "zipcode": ""
},
{
  "id": 6312805,
  "address": "Second Floor, Entertainment Mall, SM Mall of Asia, Mall of Asia Complex (MOA), Pasay City",
  "city": "Pasay City",
  "city_id": 63,
  "country_id": 162,
  "latitude": 14.53580078,
  "locality": "Entertainment Mall, SM Mall of Asia, Mall of Asia Complex (MOA), Pasay City",
  "locality_verbose": "Entertainment Mall, SM Mall of Asia, Mall of Asia Complex (MOA), Pasay City, Pasay City",
  "longitude": 120.9800097,
  "zipcode": ""
},
{
  "id": 6300988,
  "address": "Second Floor, Entertainment Mall, SM Mall of Asia, Mall of Asia Complex (MOA), Pasay City",
  "city": "Pasay City",
  "city_id": 63,
  "country_id": 162,
  "latitude": 14.53529222,
  "locality": "Entertainment Mall, SM Mall of Asia, Mall of Asia Complex (MOA), Pasay City",
  "locality_verbose": "Entertainment Mall, SM Mall of Asia, Mall of Asia Complex (MOA), Pasay City, Pasay City",
  "longitude": 120.9800217,
  "zipcode": ""
},
{
  "id": 6301604,
  "address": "Ground Floor, Main Mall, SM Mall of Asia, Mall of Asia Complex (MOA), Pasay City",
  "city": "Pasay City",
  "city_id": 63,
  "country_id": 162,
  "latitude": 14.53437895,
  "locality": "Main Mall, SM Mall of Asia, Mall of Asia Complex (MOA), Pasay City",
  "locality_verbose": "Main Mall, SM Mall of Asia, Mall of Asia Complex (MOA), Pasay City, Pasay City",
  "longitude": 120.9817849,
  "zipcode": ""
},
{
  "id": 18364382,
  "address": "Level 1, S Maison, Conrad Manila, Seaside Boulevard Corner Coral Way, Mall of Asia Complex (MOA), Pasay City",
  "city": "Pasay City",
  "city_id": 63,
  "country_id": 162,
  "latitude": 14.53146483,
  "locality": "S Maison, Conrad Manila, Mall of Asia Complex (MOA), Pasay City",
  "locality_verbose": "S Maison, Conrad Manila, Mall of Asia Complex (MOA), Pasay City, Pasay City",
  "longitude": 120.9804606,
  "zipcode": ""
},
{
  "id": 18442134,
  "address": "Ground Floor, Entertainment Mall, SM Mall of Asia, Mall of Asia Complex (MOA), Pasay City",
  "city": "Pasay City",
  "city_id": 63,
  "country_id": 162,
  "latitude": 14.53694545,
  "locality": "Entertainment Mall, SM Mall of Asia, Mall of Asia Complex (MOA), Pasay City",
  "locality_verbose": "Entertainment Mall, SM Mall of Asia, Mall of Asia Complex (MOA), Pasay City, Pasay City",
  "longitude": 120.9802212,
  "zipcode": ""
},
{
  "id": 18342577,
  "address": "Conrad Manila, Seaside Boulevard Corner Coral Way, Mall of Asia Complex (MOA), Pasay City",
  "city": "Pasay City",
  "city_id": 63,
  "country_id": 162,
  "latitude": 14.53127172,
  "locality": "Conrad Manila, Mall of Asia Complex (MOA), Pasay City",
  "locality_verbose": "Conrad Manila, Mall of Asia Complex (MOA), Pasay City, Pasay City",
  "longitude": 120.9803526,
  "zipcode": ""
},
{
  "id": 18401695,
  "address": "Level 1, S Maison, Conrad Manila, Seaside Boulevard Corner Coral Way, Mall of Asia Complex (MOA), Pasay City",
  "city": "Pasay City",
  "city_id": 63,
  "country_id": 162,
  "latitude": 14.53221876,
  "locality": "S Maison, Conrad Manila, Mall of Asia Complex (MOA), Pasay City",
  "locality_verbose": "S Maison, Conrad Manila, Mall of Asia Complex (MOA), Pasay City, Pasay City",
  "longitude": 120.980406,
  "zipcode": ""
},
{
  "id": 6300779,
  "address": "Ground Floor, Entertainment Mall, SM Mall of Asia, Mall of Asia Complex (MOA), Pasay City",
  "city": "Pasay City",
  "city_id": 63,
  "country_id": 162,
  "latitude": 14.53396158,
  "locality": "Entertainment Mall, SM Mall of Asia, Mall of Asia Complex (MOA), Pasay City",
  "locality_verbose": "Entertainment Mall, SM Mall of Asia, Mall of Asia Complex (MOA), Pasay City, Pasay City",
  "longitude": 120.9800482,
  "zipcode": ""
},
{
  "id": 18336015,
  "address": "Ground Floor, North Wing, SM Mall of Asia, Mall of Asia Complex (MOA), Pasay City",
  "city": "Pasay City",
  "city_id": 63,
  "country_id": 162,
  "latitude": 14.53664784,
  "locality": "North Wing, SM Mall of Asia, Mall of Asia Complex (MOA), Pasay City",
  "locality_verbose": "North Wing, SM Mall of Asia, Mall of Asia Complex (MOA), Pasay City, Pasay City",
  "longitude": 120.9803164,
  "zipcode": ""
},
{
  "id": 18171893,
  "address": "Ground Floor, South Wing, SM Mall of Asia, Mall of Asia Complex (MOA), Pasay City",
  "city": "Pasay City",
  "city_id": 63,
  "country_id": 162,
  "latitude": 14.53414041,
  "locality": "South Wing, SM Mall of Asia, Mall of Asia Complex (MOA), Pasay City",
  "locality_verbose": "South Wing, SM Mall of Asia, Mall of Asia Complex (MOA), Pasay City, Pasay City",
  "longitude": 120.9830855,
  "zipcode": ""
},
{
  "id": 18357200,
  "address": "#MOAEats, Ground Floor, North Wing, SM Mall of Asia, Mall of Asia Complex (MOA), Pasay City",
  "city": "Pasay City",
  "city_id": 63,
  "country_id": 162,
  "latitude": 14.53660857,
  "locality": "North Wing, SM Mall of Asia, Mall of Asia Complex (MOA), Pasay City",
  "locality_verbose": "North Wing, SM Mall of Asia, Mall of Asia Complex (MOA), Pasay City, Pasay City",
  "longitude": 120.9803453,
  "zipcode": ""
},
{
  "id": 18437967,
  "address": "Ground Floor, North Wing, SM Mall of Asia, Mall of Asia Complex (MOA), Pasay City",
  "city": "Pasay City",
  "city_id": 63,
  "country_id": 162,
  "latitude": 14.53689612,
  "locality": "North Wing, SM Mall of Asia, Mall of Asia Complex (MOA), Pasay City",
  "locality_verbose": "North Wing, SM Mall of Asia, Mall of Asia Complex (MOA), Pasay City, Pasay City",
  "longitude": 120.980177,
  "zipcode": ""
},
{
  "id": 6301932,
  "address": "Ground Floor, South Wing, SM Mall of Asia, Mall of Asia Complex (MOA), Pasay City",
  "city": "Pasay City",
  "city_id": 63,
  "country_id": 162,
  "latitude": 14.53418097,
  "locality": "South Wing, SM Mall of Asia, Mall of Asia Complex (MOA), Pasay City",
  "locality_verbose": "South Wing, SM Mall of Asia, Mall of Asia Complex (MOA), Pasay City, Pasay City",
  "longitude": 120.9822661,
  "zipcode": ""
},
{
  "id": 18318692,
  "address": "Building G, SM by the Bay, SM Mall of Asia, Mall of Asia Complex (MOA), Pasay City",
  "city": "Pasay City",
  "city_id": 63,
  "country_id": 162,
  "latitude": 14.53686593,
  "locality": "SM by the Bay, SM Mall of Asia, Mall of Asia Complex (MOA), Pasay City",
  "locality_verbose": "SM by the Bay, SM Mall of Asia, Mall of Asia Complex (MOA), Pasay City, Pasay City",
  "longitude": 120.9792151,
  "zipcode": ""
},
{
  "id": 6300819,
  "address": "Ground Floor, Entertainment Mall, SM Mall of Asia, Mall of Asia Complex (MOA), Pasay City",
  "city": "Pasay City",
  "city_id": 63,
  "country_id": 162,
  "latitude": 14.5355736,
  "locality": "Entertainment Mall, SM Mall of Asia, Mall of Asia Complex (MOA), Pasay City",
  "locality_verbose": "Entertainment Mall, SM Mall of Asia, Mall of Asia Complex (MOA), Pasay City, Pasay City",
  "longitude": 120.980357,
  "zipcode": ""
},
{
  "id": 18409020,
  "address": "Level 1, S Maison, Conrad Manila, Seaside Boulevard Corner Coral Way, Mall of Asia Complex (MOA), Pasay City",
  "city": "Pasay City",
  "city_id": 63,
  "country_id": 162,
  "latitude": 14.53221454,
  "locality": "S Maison, Conrad Manila, Mall of Asia Complex (MOA), Pasay City",
  "locality_verbose": "S Maison, Conrad Manila, Mall of Asia Complex (MOA), Pasay City, Pasay City",
  "longitude": 120.9804147,
  "zipcode": ""
},
{
  "id": 18409022,
  "address": "S Maison, Conrad Manila, Seaside Boulevard Corner Coral Way, Mall of Asia Complex (MOA), Pasay City",
  "city": "Pasay City",
  "city_id": 63,
  "country_id": 162,
  "latitude": 14.53232683,
  "locality": "S Maison, Conrad Manila, Mall of Asia Complex (MOA), Pasay City",
  "locality_verbose": "S Maison, Conrad Manila, Mall of Asia Complex (MOA), Pasay City, Pasay City",
  "longitude": 120.9805411,
  "zipcode": ""
},
{
  "id": 6314940,
  "address": "SM by the Bay, Seaside Boulevard, SM Mall of Asia, Mall of Asia Complex (MOA), Pasay City",
  "city": "Pasay City",
  "city_id": 63,
  "country_id": 162,
  "latitude": 14.53845099,
  "locality": "SM by the Bay, SM Mall of Asia, Mall of Asia Complex (MOA), Pasay City",
  "locality_verbose": "SM by the Bay, SM Mall of Asia, Mall of Asia Complex (MOA), Pasay City, Pasay City",
  "longitude": 120.9796006,
  "zipcode": ""
},
{
  "id": 18382094,
  "address": "Level 2, S Maison, Conrad Manila, Seaside Boulevard Corner Coral Way, Mall of Asia Complex (MOA), Pasay City",
  "city": "Pasay City",
  "city_id": 63,
  "country_id": 162,
  "latitude": 14.53164073,
  "locality": "S Maison, Conrad Manila, Mall of Asia Complex (MOA), Pasay City",
  "locality_verbose": "S Maison, Conrad Manila, Mall of Asia Complex (MOA), Pasay City, Pasay City",
  "longitude": 120.9804395,
  "zipcode": ""
},
{
  "id": 18312918,
  "address": "Ground Floor, Main Mall, SM Mall of Asia, Mall of Asia Complex (MOA), Pasay City",
  "city": "Pasay City",
  "city_id": 63,
  "country_id": 162,
  "latitude": 14.53605587,
  "locality": "Main Mall, SM Mall of Asia, Mall of Asia Complex (MOA), Pasay City",
  "locality_verbose": "Main Mall, SM Mall of Asia, Mall of Asia Complex (MOA), Pasay City, Pasay City",
  "longitude": 120.9814916,
  "zipcode": ""
},
{
  "id": 6300587,
  "address": "Fourth Level, Two E-Com Center, Ocean Drive, Mall of Asia Complex (MOA), Pasay City",
  "city": "Pasay City",
  "city_id": 63,
  "country_id": 162,
  "latitude": 14.53948043,
  "locality": "Two E-Com Center, Mall of Asia Complex (MOA), Pasay City",
  "locality_verbose": "Two E-Com Center, Mall of Asia Complex (MOA), Pasay City, Pasay City",
  "longitude": 120.9817263,
  "zipcode": ""
},
{
  "id": 6301626,
  "address": "Ground Floor, Entertainment Mall, SM Mall of Asia, Mall of Asia Complex (MOA), Pasay City",
  "city": "Pasay City",
  "city_id": 63,
  "country_id": 162,
  "latitude": 14.53589425,
  "locality": "Entertainment Mall, SM Mall of Asia, Mall of Asia Complex (MOA), Pasay City",
  "locality_verbose": "Entertainment Mall, SM Mall of Asia, Mall of Asia Complex (MOA), Pasay City, Pasay City",
  "longitude": 120.9798568,
  "zipcode": ""
},
{
  "id": 6301959,
  "address": "Second Floor, Main Mall, SM Mall of Asia, Mall of Asia Complex (MOA), Pasay City",
  "city": "Pasay City",
  "city_id": 63,
  "country_id": 162,
  "latitude": 14.53418552,
  "locality": "Main Mall, SM Mall of Asia, Mall of Asia Complex (MOA), Pasay City",
  "locality_verbose": "Main Mall, SM Mall of Asia, Mall of Asia Complex (MOA), Pasay City, Pasay City",
  "longitude": 120.982547,
  "zipcode": ""
},
{
  "id": 18704175,
  "address": "S Maison, Conrad Manila, Seaside Boulevard Corner Coral Way, Mall of Asia Complex (MOA), Pasay City",
  "city": "Pasay City",
  "city_id": 63,
  "country_id": 162,
  "latitude": 14.53159692,
  "locality": "S Maison, Conrad Manila, Mall of Asia Complex (MOA), Pasay City",
  "locality_verbose": "S Maison, Conrad Manila, Mall of Asia Complex (MOA), Pasay City, Pasay City",
  "longitude": 120.9796673,
  "zipcode": ""
},
{
  "id": 6301458,
  "address": "Ground Floor, Main Mall, SM Mall of Asia, Mall of Asia Complex (MOA), Pasay City",
  "city": "Pasay City",
  "city_id": 63,
  "country_id": 162,
  "latitude": 14.53633498,
  "locality": "Main Mall, SM Mall of Asia, Mall of Asia Complex (MOA), Pasay City",
  "locality_verbose": "Main Mall, SM Mall of Asia, Mall of Asia Complex (MOA), Pasay City, Pasay City",
  "longitude": 120.9818725,
  "zipcode": ""
},
{
  "id": 6301696,
  "address": "Second Floor, Entertainment Mall, SM Mall of Asia, Mall of Asia Complex (MOA), Pasay City",
  "city": "Pasay City",
  "city_id": 63,
  "country_id": 162,
  "latitude": 14.53410373,
  "locality": "Entertainment Mall, SM Mall of Asia, Mall of Asia Complex (MOA), Pasay City",
  "locality_verbose": "Entertainment Mall, SM Mall of Asia, Mall of Asia Complex (MOA), Pasay City, Pasay City",
  "longitude": 120.9802906,
  "zipcode": ""
},
{
  "id": 18578723,
  "address": "Ground Floor, Main Mall, SM Mall of Asia, Mall of Asia Complex (MOA), Pasay City",
  "city": "Pasay City",
  "city_id": 63,
  "country_id": 162,
  "latitude": 14.53531007,
  "locality": "Main Mall, SM Mall of Asia, Mall of Asia Complex (MOA), Pasay City",
  "locality_verbose": "Main Mall, SM Mall of Asia, Mall of Asia Complex (MOA), Pasay City, Pasay City",
  "longitude": 120.9818071,
  "zipcode": ""
},
{
  "id": 18401703,
  "address": "Ground Floor, Mall of Asia Arena Parking Building, J.W Diokno Boulevard Corner Coral Way, Mall of Asia Complex (MOA), Pasay City",
  "city": "Pasay City",
  "city_id": 63,
  "country_id": 162,
  "latitude": 14.53154954,
  "locality": "Mall of Asia Arena Annex, Mall of Asia Complex, Pasay City",
  "locality_verbose": "Mall of Asia Arena Annex, Mall of Asia Complex, Pasay City, Pasay City",
  "longitude": 120.9842187,
  "zipcode": ""
},
{
  "id": 18232786,
  "address": "Second Floor, Main Mall, SM Mall of Asia, Mall of Asia Complex (MOA), Pasay City",
  "city": "Pasay City",
  "city_id": 63,
  "country_id": 162,
  "latitude": 14.53527469,
  "locality": "Main Mall, SM Mall of Asia, Mall of Asia Complex (MOA), Pasay City",
  "locality_verbose": "Main Mall, SM Mall of Asia, Mall of Asia Complex (MOA), Pasay City, Pasay City",
  "longitude": 120.9826419,
  "zipcode": ""
},
{
  "id": 6300880,
  "address": "Second Floor, Entertainment Mall, SM Mall of Asia, Mall of Asia Complex (MOA), Pasay City",
  "city": "Pasay City",
  "city_id": 63,
  "country_id": 162,
  "latitude": 14.53462593,
  "locality": "Entertainment Mall, SM Mall of Asia, Mall of Asia Complex (MOA), Pasay City",
  "locality_verbose": "Entertainment Mall, SM Mall of Asia, Mall of Asia Complex (MOA), Pasay City, Pasay City",
  "longitude": 120.9799574,
  "zipcode": ""
},
{
  "id": 6300516,
  "address": "Second Floor, Entertainment Mall, SM Mall of Asia, Mall of Asia Complex (MOA), Pasay City",
  "city": "Pasay City",
  "city_id": 63,
  "country_id": 162,
  "latitude": 14.53539056,
  "locality": "Entertainment Mall, SM Mall of Asia, Mall of Asia Complex (MOA), Pasay City",
  "locality_verbose": "Entertainment Mall, SM Mall of Asia, Mall of Asia Complex (MOA), Pasay City, Pasay City",
  "longitude": 120.9799533,
  "zipcode": ""
},
{
  "id": 18343822,
  "address": "Conrad Manila, Seaside Boulevard Corner Coral Way, Mall of Asia Complex (MOA), Pasay City 1300",
  "city": "Pasay City",
  "city_id": 63,
  "country_id": 162,
  "latitude": 14.53195912,
  "locality": "Conrad Manila, Mall of Asia Complex (MOA), Pasay City",
  "locality_verbose": "Conrad Manila, Mall of Asia Complex (MOA), Pasay City, Pasay City",
  "longitude": 120.9803718,
  "zipcode": 1300
},
{
  "id": 18335996,
  "address": "Level 2, S Maison, Conrad Manila, Seaside Boulevard Corner Coral Way, Mall of Asia Complex (MOA), Pasay City",
  "city": "Pasay City",
  "city_id": 63,
  "country_id": 162,
  "latitude": 14.53165015,
  "locality": "S Maison, Conrad Manila, Mall of Asia Complex (MOA), Pasay City",
  "locality_verbose": "S Maison, Conrad Manila, Mall of Asia Complex (MOA), Pasay City, Pasay City",
  "longitude": 120.9804314,
  "zipcode": ""
},
{
  "id": 6300381,
  "address": "Ground Floor, North Wing, SM Mall of Asia, Mall of Asia Complex (MOA), Pasay City",
  "city": "Pasay City",
  "city_id": 63,
  "country_id": 162,
  "latitude": 14.5365534,
  "locality": "North Wing, SM Mall of Asia, Mall of Asia Complex (MOA), Pasay City",
  "locality_verbose": "North Wing, SM Mall of Asia, Mall of Asia Complex (MOA), Pasay City, Pasay City",
  "longitude": 120.9830865,
  "zipcode": ""
},
{
  "id": 18335985,
  "address": "Level 1, S Maison, Conrad Manila, Seaside Boulevard Corner Coral Way, Mall of Asia Complex (MOA), Pasay City",
  "city": "Pasay City",
  "city_id": 63,
  "country_id": 162,
  "latitude": 14.53231385,
  "locality": "S Maison, Conrad Manila, Mall of Asia Complex (MOA), Pasay City",
  "locality_verbose": "S Maison, Conrad Manila, Mall of Asia Complex (MOA), Pasay City, Pasay City",
  "longitude": 120.9805407,
  "zipcode": ""
},
{
  "id": 6300660,
  "address": "Building H, SM by the Bay, SM Mall of Asia, Mall of Asia Complex (MOA), Pasay City",
  "city": "Pasay City",
  "city_id": 63,
  "country_id": 162,
  "latitude": 14.53323687,
  "locality": "SM by the Bay, SM Mall of Asia, Mall of Asia Complex (MOA), Pasay City",
  "locality_verbose": "SM by the Bay, SM Mall of Asia, Mall of Asia Complex (MOA), Pasay City, Pasay City",
  "longitude": 120.979328,
  "zipcode": ""
},
{
  "id": 6315172,
  "address": "Ground Floor, South Wing, SM Mall of Asia, Mall of Asia Complex (MOA), Pasay City",
  "city": "Pasay City",
  "city_id": 63,
  "country_id": 162,
  "latitude": 14.53406024,
  "locality": "South Wing, SM Mall of Asia, Mall of Asia Complex (MOA), Pasay City",
  "locality_verbose": "South Wing, SM Mall of Asia, Mall of Asia Complex (MOA), Pasay City, Pasay City",
  "longitude": 120.9817544,
  "zipcode": ""
},
{
  "id": 6300772,
  "address": "Ground Floor, Entertainment Mall, SM Mall of Asia, Mall of Asia Complex (MOA), Pasay City",
  "city": "Pasay City",
  "city_id": 63,
  "country_id": 162,
  "latitude": 14.53413262,
  "locality": "Entertainment Mall, SM Mall of Asia, Mall of Asia Complex (MOA), Pasay City",
  "locality_verbose": "Entertainment Mall, SM Mall of Asia, Mall of Asia Complex (MOA), Pasay City, Pasay City",
  "longitude": 120.9802651,
  "zipcode": ""
},
{
  "id": 18401676,
  "address": "Second Floor, Entertainment Mall, SM Mall of Asia, Mall of Asia Complex (MOA), Pasay City",
  "city": "Pasay City",
  "city_id": 63,
  "country_id": 162,
  "latitude": 14.53453765,
  "locality": "Entertainment Mall, SM Mall of Asia, Mall of Asia Complex (MOA), Pasay City",
  "locality_verbose": "Entertainment Mall, SM Mall of Asia, Mall of Asia Complex (MOA), Pasay City, Pasay City",
  "longitude": 120.980005,
  "zipcode": ""
},
{
  "id": 6313332,
  "address": "Ground Floor, South Wing, SM Mall of Asia, Mall of Asia Complex (MOA), Pasay City",
  "city": "Pasay City",
  "city_id": 63,
  "country_id": 162,
  "latitude": 14.53399014,
  "locality": "South Wing, SM Mall of Asia, Mall of Asia Complex (MOA), Pasay City",
  "locality_verbose": "South Wing, SM Mall of Asia, Mall of Asia Complex (MOA), Pasay City, Pasay City",
  "longitude": 120.9817692,
  "zipcode": ""
},
{
  "id": 18252233,
  "address": "Ground Floor, Main Mall, SM Mall of Asia, Mall of Asia Complex (MOA), Pasay City",
  "city": "Pasay City",
  "city_id": 63,
  "country_id": 162,
  "latitude": 14.53627234,
  "locality": "Main Mall, SM Mall of Asia, Mall of Asia Complex (MOA), Pasay City",
  "locality_verbose": "Main Mall, SM Mall of Asia, Mall of Asia Complex (MOA), Pasay City, Pasay City",
  "longitude": 120.9814027,
  "zipcode": ""
},
{
  "id": 6301413,
  "address": "Ground Floor, Main Mall, SM Mall of Asia, Mall of Asia Complex (MOA), Pasay City",
  "city": "Pasay City",
  "city_id": 63,
  "country_id": 162,
  "latitude": 14.53581636,
  "locality": "Main Mall, SM Mall of Asia, Mall of Asia Complex (MOA), Pasay City",
  "locality_verbose": "Main Mall, SM Mall of Asia, Mall of Asia Complex (MOA), Pasay City, Pasay City",
  "longitude": 120.9824273,
  "zipcode": ""
},
{
  "id": 6315397,
  "address": "Ground Floor, Entertainment Mall, SM Mall of Asia, Mall of Asia Complex (MOA), Pasay City",
  "city": "Pasay City",
  "city_id": 63,
  "country_id": 162,
  "latitude": 14.53533246,
  "locality": "Entertainment Mall, SM Mall of Asia, Mall of Asia Complex (MOA), Pasay City",
  "locality_verbose": "Entertainment Mall, SM Mall of Asia, Mall of Asia Complex (MOA), Pasay City, Pasay City",
  "longitude": 120.9799701,
  "zipcode": ""
},
{
  "id": 18364395,
  "address": "Level 2, S Maison, Conrad Manila, Seaside Boulevard Corner Coral Way, Mall of Asia Complex (MOA), Pasay City",
  "city": "Pasay City",
  "city_id": 63,
  "country_id": 162,
  "latitude": 14.53232229,
  "locality": "S Maison, Conrad Manila, Mall of Asia Complex (MOA), Pasay City",
  "locality_verbose": "S Maison, Conrad Manila, Mall of Asia Complex (MOA), Pasay City, Pasay City",
  "longitude": 120.980529,
  "zipcode": ""
},
{
  "id": 18401697,
  "address": "S Maison, Conrad Manila, Seaside Boulevard Corner Coral Way, Mall of Asia Complex (MOA), Pasay City",
  "city": "Pasay City",
  "city_id": 63,
  "country_id": 162,
  "latitude": 14.53218078,
  "locality": "S Maison, Conrad Manila, Mall of Asia Complex (MOA), Pasay City",
  "locality_verbose": "S Maison, Conrad Manila, Mall of Asia Complex (MOA), Pasay City, Pasay City",
  "longitude": 120.9804623,
  "zipcode": ""
},
{
  "id": 6300577,
  "address": "Ground Floor, North Wing, SM Mall of Asia, Mall of Asia Complex (MOA), Pasay City",
  "city": "Pasay City",
  "city_id": 63,
  "country_id": 162,
  "latitude": 14.53614675,
  "locality": "North Wing, SM Mall of Asia, Mall of Asia Complex (MOA), Pasay City",
  "locality_verbose": "North Wing, SM Mall of Asia, Mall of Asia Complex (MOA), Pasay City, Pasay City",
  "longitude": 120.9813625,
  "zipcode": ""
},
{
  "id": 18369124,
  "address": "Level 2, S Maison, Conrad Manila, Seaside Boulevard Corner Coral Way, Mall of Asia Complex (MOA), Pasay City",
  "city": "Pasay City",
  "city_id": 63,
  "country_id": 162,
  "latitude": 14.53231839,
  "locality": "S Maison, Conrad Manila, Mall of Asia Complex (MOA), Pasay City",
  "locality_verbose": "S Maison, Conrad Manila, Mall of Asia Complex (MOA), Pasay City, Pasay City",
  "longitude": 120.9804874,
  "zipcode": ""
},
{
  "id": 18614613,
  "address": "Ground Floor, South Wing, SM Mall of Asia, Mall of Asia Complex (MOA), Pasay City",
  "city": "Pasay City",
  "city_id": 63,
  "country_id": 162,
  "latitude": 14.53406706,
  "locality": "South Wing, SM Mall of Asia, Mall of Asia Complex (MOA), Pasay City",
  "locality_verbose": "South Wing, SM Mall of Asia, Mall of Asia Complex (MOA), Pasay City, Pasay City",
  "longitude": 120.9819382,
  "zipcode": ""
},
{
  "id": 6300785,
  "address": "Ground Floor, Main Mall, SM Mall of Asia, Mall of Asia Complex (MOA), Pasay City",
  "city": "Pasay City",
  "city_id": 63,
  "country_id": 162,
  "latitude": 14.53623015,
  "locality": "Main Mall, SM Mall of Asia, Mall of Asia Complex (MOA), Pasay City",
  "locality_verbose": "Main Mall, SM Mall of Asia, Mall of Asia Complex (MOA), Pasay City, Pasay City",
  "longitude": 120.9819895,
  "zipcode": ""
},
{
  "id": 6301452,
  "address": "Second Floor, Main Mall, SM Mall of Asia, Mall of Asia Complex (MOA), Pasay City",
  "city": "Pasay City",
  "city_id": 63,
  "country_id": 162,
  "latitude": 14.53436272,
  "locality": "Main Mall, SM Mall of Asia, Mall of Asia Complex (MOA), Pasay City",
  "locality_verbose": "Main Mall, SM Mall of Asia, Mall of Asia Complex (MOA), Pasay City, Pasay City",
  "longitude": 120.9825511,
  "zipcode": ""
},
{
  "id": 18382282,
  "address": "#MOAEats, Ground Floor, North Wing, SM Mall of Asia, Mall of Asia Complex (MOA), Pasay City",
  "city": "Pasay City",
  "city_id": 63,
  "country_id": 162,
  "latitude": 14.53685685,
  "locality": "North Wing, SM Mall of Asia, Mall of Asia Complex (MOA), Pasay City",
  "locality_verbose": "North Wing, SM Mall of Asia, Mall of Asia Complex (MOA), Pasay City, Pasay City",
  "longitude": 120.9803124,
  "zipcode": ""
},
{
  "id": 18382284,
  "address": "Ground Floor, North Wing, SM Mall of Asia, Mall of Asia Complex (MOA), Pasay City",
  "city": "Pasay City",
  "city_id": 63,
  "country_id": 162,
  "latitude": 14.53666472,
  "locality": "North Wing, SM Mall of Asia, Mall of Asia Complex (MOA), Pasay City",
  "locality_verbose": "North Wing, SM Mall of Asia, Mall of Asia Complex (MOA), Pasay City, Pasay City",
  "longitude": 120.9803372,
  "zipcode": ""
},
{
  "id": 18558203,
  "address": "Ground Floor, Main Mall, SM Mall of Asia, Mall of Asia Complex (MOA), Pasay City",
  "city": "Pasay City",
  "city_id": 63,
  "country_id": 162,
  "latitude": 14.53554017,
  "locality": "Main Mall, SM Mall of Asia, Mall of Asia Complex (MOA), Pasay City",
  "locality_verbose": "Main Mall, SM Mall of Asia, Mall of Asia Complex (MOA), Pasay City, Pasay City",
  "longitude": 120.9817132,
  "zipcode": ""
},
{
  "id": 6302068,
  "address": "Second Floor, Entertainment Mall, SM Mall of Asia, Mall of Asia Complex (MOA), Pasay City",
  "city": "Pasay City",
  "city_id": 63,
  "country_id": 162,
  "latitude": 14.53553141,
  "locality": "Entertainment Mall, SM Mall of Asia, Mall of Asia Complex (MOA), Pasay City",
  "locality_verbose": "Entertainment Mall, SM Mall of Asia, Mall of Asia Complex (MOA), Pasay City, Pasay City",
  "longitude": 120.9799604,
  "zipcode": ""
},
{
  "id": 6300813,
  "address": "Ground Floor, Main Mall, SM Mall of Asia, Mall of Asia Complex (MOA), Pasay City",
  "city": "Pasay City",
  "city_id": 63,
  "country_id": 162,
  "latitude": 14.53402746,
  "locality": "Main Mall, SM Mall of Asia, Mall of Asia Complex (MOA), Pasay City",
  "locality_verbose": "Main Mall, SM Mall of Asia, Mall of Asia Complex (MOA), Pasay City, Pasay City",
  "longitude": 120.9830717,
  "zipcode": ""
},
{
  "id": 6310739,
  "address": "Ground Floor, Main Mall, SM Mall of Asia, Mall of Asia Complex (MOA), Pasay City",
  "city": "Pasay City",
  "city_id": 63,
  "country_id": 162,
  "latitude": 14.53572289,
  "locality": "Main Mall, SM Mall of Asia, Mall of Asia Complex (MOA), Pasay City",
  "locality_verbose": "Main Mall, SM Mall of Asia, Mall of Asia Complex (MOA), Pasay City, Pasay City",
  "longitude": 120.982479,
  "zipcode": ""
},
{
  "id": 6300977,
  "address": "Ground Floor, North Wing, SM Mall of Asia, Mall of Asia Complex (MOA), Pasay City",
  "city": "Pasay City",
  "city_id": 63,
  "country_id": 162,
  "latitude": 14.53544054,
  "locality": "North Wing, SM Mall of Asia, Mall of Asia Complex (MOA), Pasay City",
  "locality_verbose": "North Wing, SM Mall of Asia, Mall of Asia Complex (MOA), Pasay City, Pasay City",
  "longitude": 120.9799282,
  "zipcode": ""
},
{
  "id": 18382086,
  "address": "#MOAEats, Ground Floor, North Wing, SM Mall of Asia, Mall of Asia Complex (MOA), Pasay City",
  "city": "Pasay City",
  "city_id": 63,
  "country_id": 162,
  "latitude": 14.53651575,
  "locality": "North Wing, SM Mall of Asia, Mall of Asia Complex (MOA), Pasay City",
  "locality_verbose": "North Wing, SM Mall of Asia, Mall of Asia Complex (MOA), Pasay City, Pasay City",
  "longitude": 120.9803443,
  "zipcode": ""
},
{
  "id": 18409018,
  "address": "Level 1, S Maison, Conrad Manila, Seaside Boulevard Corner Coral Way, Mall of Asia Complex (MOA), Pasay City",
  "city": "Pasay City",
  "city_id": 63,
  "country_id": 162,
  "latitude": 14.53239304,
  "locality": "S Maison, Conrad Manila, Mall of Asia Complex (MOA), Pasay City",
  "locality_verbose": "S Maison, Conrad Manila, Mall of Asia Complex (MOA), Pasay City, Pasay City",
  "longitude": 120.980532,
  "zipcode": ""
},
{
  "id": 18340451,
  "address": "Level 3, Conrad Manila, Seaside Boulevard Corner Coral Way, Mall of Asia Complex (MOA), Pasay City 1300",
  "city": "Pasay City",
  "city_id": 63,
  "country_id": 162,
  "latitude": 14.53191238,
  "locality": "Conrad Manila, Mall of Asia Complex (MOA), Pasay City",
  "locality_verbose": "Conrad Manila, Mall of Asia Complex (MOA), Pasay City, Pasay City",
  "longitude": 120.980295,
  "zipcode": 1300
},
{
  "id": 18486541,
  "address": "Ground Floor, SMX Covention Center, Marina Way Corner Seashell Lane, Mall of Asia Complex (MOA), Pasay City",
  "city": "Pasay City",
  "city_id": 63,
  "country_id": 162,
  "latitude": 14.53315378,
  "locality": "Mall of Asia Complex (MOA)",
  "locality_verbose": "Mall of Asia Complex (MOA), Pasay City",
  "longitude": 120.9821591,
  "zipcode": ""
},
{
  "id": 6301265,
  "address": "Fourth Level, Two E-Com Center, Ocean Drive, Mall of Asia Complex (MOA), Pasay City",
  "city": "Pasay City",
  "city_id": 63,
  "country_id": 162,
  "latitude": 14.53950899,
  "locality": "Two E-Com Center, Mall of Asia Complex (MOA), Pasay City",
  "locality_verbose": "Two E-Com Center, Mall of Asia Complex (MOA), Pasay City, Pasay City",
  "longitude": 120.9817548,
  "zipcode": ""
},
{
  "id": 6301695,
  "address": "Ground Floor, South Wing, SM Mall of Asia, Mall of Asia Complex (MOA), Pasay City",
  "city": "Pasay City",
  "city_id": 63,
  "country_id": 162,
  "latitude": 14.5340729,
  "locality": "South Wing, SM Mall of Asia, Mall of Asia Complex (MOA), Pasay City",
  "locality_verbose": "South Wing, SM Mall of Asia, Mall of Asia Complex (MOA), Pasay City, Pasay City",
  "longitude": 120.9815389,
  "zipcode": ""
},
{
  "id": 6300782,
  "address": "Ground Floor, South Wing, SM Mall of Asia, Mall of Asia Complex (MOA), Pasay City",
  "city": "Pasay City",
  "city_id": 63,
  "country_id": 162,
  "latitude": 14.53408783,
  "locality": "South Wing, SM Mall of Asia, Mall of Asia Complex (MOA), Pasay City",
  "locality_verbose": "South Wing, SM Mall of Asia, Mall of Asia Complex (MOA), Pasay City, Pasay City",
  "longitude": 120.9819962,
  "zipcode": ""
},
{
  "id": 18336022,
  "address": "S Maison, Conrad Manila, Seaside Boulevard Corner Coral Way, Mall of Asia Complex (MOA), Pasay City",
  "city": "Pasay City",
  "city_id": 63,
  "country_id": 162,
  "latitude": 14.53144049,
  "locality": "S Maison, Conrad Manila, Mall of Asia Complex (MOA), Pasay City",
  "locality_verbose": "S Maison, Conrad Manila, Mall of Asia Complex (MOA), Pasay City, Pasay City",
  "longitude": 120.9804737,
  "zipcode": ""
},
{
  "id": 6312101,
  "address": "Ground Floor, Entertainment Mall, SM Mall of Asia, Mall of Asia Complex (MOA), Pasay City",
  "city": "Pasay City",
  "city_id": 63,
  "country_id": 162,
  "latitude": 14.53427607,
  "locality": "Entertainment Mall, SM Mall of Asia, Mall of Asia Complex (MOA), Pasay City",
  "locality_verbose": "Entertainment Mall, SM Mall of Asia, Mall of Asia Complex (MOA), Pasay City, Pasay City",
  "longitude": 120.9798102,
  "zipcode": ""
},
{
  "id": 6300824,
  "address": "Ground Floor, North Wing, SM Mall of Asia, Mall of Asia Complex (MOA), Pasay City",
  "city": "Pasay City",
  "city_id": 63,
  "country_id": 162,
  "latitude": 14.53679324,
  "locality": "North Wing, SM Mall of Asia, Mall of Asia Complex (MOA), Pasay City",
  "locality_verbose": "North Wing, SM Mall of Asia, Mall of Asia Complex (MOA), Pasay City, Pasay City",
  "longitude": 120.983007,
  "zipcode": ""
},
{
  "id": 6301352,
  "address": "Ground Floor, Main Mall, SM Mall of Asia, Mall of Asia Complex (MOA), Pasay City",
  "city": "Pasay City",
  "city_id": 63,
  "country_id": 162,
  "latitude": 14.53627656,
  "locality": "Main Mall, SM Mall of Asia, Mall of Asia Complex (MOA), Pasay City",
  "locality_verbose": "Main Mall, SM Mall of Asia, Mall of Asia Complex (MOA), Pasay City, Pasay City",
  "longitude": 120.9817846,
  "zipcode": ""
},
{
  "id": 18312929,
  "address": "Ground Floor, South Parking Building, SM Mall of Asia, Mall of Asia Complex (MOA), Pasay City",
  "city": "Pasay City",
  "city_id": 63,
  "country_id": 162,
  "latitude": 14.53407647,
  "locality": "South Wing, SM Mall of Asia, Mall of Asia Complex (MOA), Pasay City",
  "locality_verbose": "South Wing, SM Mall of Asia, Mall of Asia Complex (MOA), Pasay City, Pasay City",
  "longitude": 120.9819043,
  "zipcode": ""
},
{
  "id": 6300753,
  "address": "Ground Floor, South Wing, SM Mall of Asia, Mall of Asia Complex (MOA), Pasay City",
  "city": "Pasay City",
  "city_id": 63,
  "country_id": 162,
  "latitude": 14.53407874,
  "locality": "South Wing, SM Mall of Asia, Mall of Asia Complex (MOA), Pasay City",
  "locality_verbose": "South Wing, SM Mall of Asia, Mall of Asia Complex (MOA), Pasay City, Pasay City",
  "longitude": 120.9818134,
  "zipcode": ""
},
{
  "id": 18372814,
  "address": "Ground Floor, ATC Corporate Center, Alabang, Muntinlupa City",
  "city": "Muntinlupa City",
  "city_id": 63,
  "country_id": 162,
  "latitude": 14.42443237,
  "locality": "ATC Corporate Center, Alabang, Muntinlupa City",
  "locality_verbose": "ATC Corporate Center, Alabang, Muntinlupa City, Muntinlupa City",
  "longitude": 121.0281178,
  "zipcode": ""
},
{
  "id": 6309818,
  "address": "Ground Floor, Cinema & Entertainment Complex, Alabang Town Center, Alabang, Muntinlupa City 1780",
  "city": "Muntinlupa City",
  "city_id": 63,
  "country_id": 162,
  "latitude": 14.42323679,
  "locality": "Alabang Town Center, Alabang, Muntinlupa City",
  "locality_verbose": "Alabang Town Center, Alabang, Muntinlupa City, Muntinlupa City",
  "longitude": 121.0307349,
  "zipcode": 1780
},
{
  "id": 6309857,
  "address": "Molito Commercial Complex, Alabang, Muntinlupa City",
  "city": "Muntinlupa City",
  "city_id": 63,
  "country_id": 162,
  "latitude": 14.4247587,
  "locality": "Molito Commercial Complex, Alabang, Mutinlupa City",
  "locality_verbose": "Molito Commercial Complex, Alabang, Mutinlupa City, Muntinlupa City",
  "longitude": 121.027186,
  "zipcode": ""
},
{
  "id": 6309936,
  "address": "Ground Floor, Alabang Town Center, Alabang, Muntinlupa City",
  "city": "Muntinlupa City",
  "city_id": 63,
  "country_id": 162,
  "latitude": 14.42236527,
  "locality": "Alabang Town Center, Alabang, Muntinlupa City",
  "locality_verbose": "Alabang Town Center, Alabang, Muntinlupa City, Muntinlupa City",
  "longitude": 121.029597,
  "zipcode": ""
},
{
  "id": 18382320,
  "address": "Ground Floor, ATC Corporate Center, Alabang, Muntinlupa City",
  "city": "Muntinlupa City",
  "city_id": 63,
  "country_id": 162,
  "latitude": 14.42448529,
  "locality": "ATC Corporate Center, Alabang, Muntinlupa City",
  "locality_verbose": "ATC Corporate Center, Alabang, Muntinlupa City, Muntinlupa City",
  "longitude": 121.0284923,
  "zipcode": ""
},
{
  "id": 6313149,
  "address": "Second Floor, Alabang Town Center, Alabang, Muntinlupa City",
  "city": "Muntinlupa City",
  "city_id": 63,
  "country_id": 162,
  "latitude": 14.42286305,
  "locality": "Alabang Town Center, Alabang, Muntinlupa City",
  "locality_verbose": "Alabang Town Center, Alabang, Muntinlupa City, Muntinlupa City",
  "longitude": 121.0293338,
  "zipcode": ""
},
{
  "id": 6309940,
  "address": "Lower Ground Floor, Alabang Town Center, Alabang, Muntinlupa City",
  "city": "Muntinlupa City",
  "city_id": 63,
  "country_id": 162,
  "latitude": 14.42399141,
  "locality": "Alabang Town Center, Alabang, Muntinlupa City",
  "locality_verbose": "Alabang Town Center, Alabang, Muntinlupa City, Muntinlupa City",
  "longitude": 121.0301837,
  "zipcode": ""
},
{
  "id": 6316648,
  "address": "Molito Commercial Complex, Alabang, Muntinlupa City",
  "city": "Muntinlupa City",
  "city_id": 63,
  "country_id": 162,
  "latitude": 14.42469343,
  "locality": "Molito Commercial Complex, Alabang, Mutinlupa City",
  "locality_verbose": "Molito Commercial Complex, Alabang, Mutinlupa City, Muntinlupa City",
  "longitude": 121.0266841,
  "zipcode": ""
},
{
  "id": 18142736,
  "address": "Molito Commercial Complex, Alabang, Muntinlupa City",
  "city": "Muntinlupa City",
  "city_id": 63,
  "country_id": 162,
  "latitude": 14.42457719,
  "locality": "Molito Commercial Complex, Alabang, Mutinlupa City",
  "locality_verbose": "Molito Commercial Complex, Alabang, Mutinlupa City, Muntinlupa City",
  "longitude": 121.0266667,
  "zipcode": ""
},
{
  "id": 6315535,
  "address": "Molito Commercial Complex, Alabang, Muntinlupa City",
  "city": "Muntinlupa City",
  "city_id": 63,
  "country_id": 162,
  "latitude": 14.42407032,
  "locality": "Molito Commercial Complex, Alabang, Mutinlupa City",
  "locality_verbose": "Molito Commercial Complex, Alabang, Mutinlupa City, Muntinlupa City",
  "longitude": 121.0263284,
  "zipcode": ""
},
{
  "id": 6315396,
  "address": "Second Floor, Alabang Town Center, Alabang, Muntinlupa City",
  "city": "Muntinlupa City",
  "city_id": 63,
  "country_id": 162,
  "latitude": 14.42388686,
  "locality": "Alabang Town Center, Alabang, Muntinlupa City",
  "locality_verbose": "Alabang Town Center, Alabang, Muntinlupa City, Muntinlupa City",
  "longitude": 121.0291353,
  "zipcode": ""
},
{
  "id": 6309781,
  "address": "Second Floor, Alabang Town Center, Alabang, Muntinlupa City",
  "city": "Muntinlupa City",
  "city_id": 63,
  "country_id": 162,
  "latitude": 14.42299716,
  "locality": "Alabang Town Center, Alabang, Muntinlupa City",
  "locality_verbose": "Alabang Town Center, Alabang, Muntinlupa City, Muntinlupa City",
  "longitude": 121.0301566,
  "zipcode": ""
},
{
  "id": 18471603,
  "address": "Ground Floor, ATC Corporate Center, Alabang, Muntinlupa City",
  "city": "Muntinlupa City",
  "city_id": 63,
  "country_id": 162,
  "latitude": 14.42470544,
  "locality": "ATC Corporate Center, Alabang, Muntinlupa City",
  "locality_verbose": "ATC Corporate Center, Alabang, Muntinlupa City, Muntinlupa City",
  "longitude": 121.028567,
  "zipcode": ""
},
{
  "id": 18674278,
  "address": "Ground Floor, Cinema & Entertainment Complex, Alabang Town Center, Alabang, Muntinlupa City",
  "city": "Muntinlupa City",
  "city_id": 63,
  "country_id": 162,
  "latitude": 14.42422488,
  "locality": "Alabang Town Center, Alabang, Muntinlupa City",
  "locality_verbose": "Alabang Town Center, Alabang, Muntinlupa City, Muntinlupa City",
  "longitude": 121.0309321,
  "zipcode": ""
},
{
  "id": 18142740,
  "address": "Corte de Las Palmas, Alabang Town Center, Filinvest City, Muntinlupa City",
  "city": "Muntinlupa City",
  "city_id": 63,
  "country_id": 162,
  "latitude": 14.42231721,
  "locality": "Alabang Town Center, Alabang, Muntinlupa City",
  "locality_verbose": "Alabang Town Center, Alabang, Muntinlupa City, Muntinlupa City",
  "longitude": 121.0299333,
  "zipcode": ""
},
{
  "id": 6309851,
  "address": "Ground Floor, Alabang Town Center, Alabang, Muntinlupa City",
  "city": "Muntinlupa City",
  "city_id": 63,
  "country_id": 162,
  "latitude": 14.4231725,
  "locality": "Alabang Town Center, Alabang, Muntinlupa City",
  "locality_verbose": "Alabang Town Center, Alabang, Muntinlupa City, Muntinlupa City",
  "longitude": 121.0297697,
  "zipcode": ""
},
{
  "id": 6309755,
  "address": "Second Floor, Alabang Town Center, Alabang, Muntinlupa City",
  "city": "Muntinlupa City",
  "city_id": 63,
  "country_id": 162,
  "latitude": 14.42282376,
  "locality": "Alabang Town Center, Alabang, Muntinlupa City",
  "locality_verbose": "Alabang Town Center, Alabang, Muntinlupa City, Muntinlupa City",
  "longitude": 121.0293556,
  "zipcode": ""
},
{
  "id": 18290985,
  "address": "Ground Floor, ATC Corporate Center, Alabang, Muntinlupa City",
  "city": "Muntinlupa City",
  "city_id": 63,
  "country_id": 162,
  "latitude": 14.42454082,
  "locality": "ATC Corporate Center, Alabang, Muntinlupa City",
  "locality_verbose": "ATC Corporate Center, Alabang, Muntinlupa City, Muntinlupa City",
  "longitude": 121.0280822,
  "zipcode": ""
},
{
  "id": 6309909,
  "address": "Corte de Las Palmas, Alabang Town Center, Alabang, Muntinlupa City",
  "city": "Muntinlupa City",
  "city_id": 63,
  "country_id": 162,
  "latitude": 14.42244385,
  "locality": "Alabang Town Center, Alabang, Muntinlupa City",
  "locality_verbose": "Alabang Town Center, Alabang, Muntinlupa City, Muntinlupa City",
  "longitude": 121.0292322,
  "zipcode": ""
},
{
  "id": 18142745,
  "address": "Molito Commercial Complex, Alabang, Muntinlupa City",
  "city": "Muntinlupa City",
  "city_id": 63,
  "country_id": 162,
  "latitude": 14.42315204,
  "locality": "Molito Commercial Complex, Alabang, Mutinlupa City",
  "locality_verbose": "Molito Commercial Complex, Alabang, Mutinlupa City, Muntinlupa City",
  "longitude": 121.0265178,
  "zipcode": ""
},
{
  "id": 6311704,
  "address": "Ground Floor, ATC Corporate Center, Alabang, Muntinlupa City",
  "city": "Muntinlupa City",
  "city_id": 63,
  "country_id": 162,
  "latitude": 14.42445639,
  "locality": "ATC Corporate Center, Alabang, Muntinlupa City",
  "locality_verbose": "ATC Corporate Center, Alabang, Muntinlupa City, Muntinlupa City",
  "longitude": 121.0283189,
  "zipcode": ""
},
{
  "id": 6313617,
  "address": "Molito Commercial Complex, Alabang, Muntinlupa City",
  "city": "Muntinlupa City",
  "city_id": 63,
  "country_id": 162,
  "latitude": 14.42293936,
  "locality": "Molito Commercial Complex, Alabang, Mutinlupa City",
  "locality_verbose": "Molito Commercial Complex, Alabang, Mutinlupa City, Muntinlupa City",
  "longitude": 121.0264675,
  "zipcode": ""
},
{
  "id": 18586754,
  "address": "Molito Commercial Complex, Alabang, Muntinlupa City",
  "city": "Muntinlupa City",
  "city_id": 63,
  "country_id": 162,
  "latitude": 14.42318321,
  "locality": "Molito Commercial Complex, Alabang, Mutinlupa City",
  "locality_verbose": "Molito Commercial Complex, Alabang, Mutinlupa City, Muntinlupa City",
  "longitude": 121.0266281,
  "zipcode": ""
},
{
  "id": 18415073,
  "address": "Molito Commercial Complex, Alabang, Muntinlupa City",
  "city": "Muntinlupa City",
  "city_id": 63,
  "country_id": 162,
  "latitude": 14.42326764,
  "locality": "Molito Commercial Complex, Alabang, Mutinlupa City",
  "locality_verbose": "Molito Commercial Complex, Alabang, Mutinlupa City, Muntinlupa City",
  "longitude": 121.0267398,
  "zipcode": ""
},